<?xml version="1.0" encoding="UTF-8"?>
<kml xmlns="http://www.opengis.net/kml/2.2">
<Document>
    <name>Ultra Prominent Peaks</name>

    <!-- Style for 0 -->
    <Style id="icon0">
        <IconStyle>
            <scale>1.8</scale>
            <Icon>
                <href>http://maps.google.com/mapfiles/kml/paddle/ltblu-circle.png</href>
            </Icon>
        </IconStyle>
    </Style>

    <!-- Style for 1 -->
    <Style id="icon1">
        <IconStyle>
            <scale>1.8</scale>
            <Icon>
                <href>http://maps.google.com/mapfiles/kml/shapes/volcano.png</href>
            </Icon>
        </IconStyle>
    </Style>

    <Folder>
        <name>Non-volcanic</name>
        <Placemark>
    <styleUrl>#icon0</styleUrl>
    <name>Mt. Kosciuszko</name>
		<description><![CDATA[World's Ultras<BR><BR><B>NAME</B> = Mt. Kosciuszko<BR><B>ELEVATION</B> = 2228<BR><B>PROMINENCE</B> = 2228<BR><B>ID</B> = OC009<BR><B>ALT_NAME</B> = <BR><B>COMMENT</B> = HP of Australia.<BR><B>COUNTRY</B> = Australia<BR><B>AUTHORS</B> = http://www.PEAKLIST.org]]></description>
		<Point>
			<coordinates>148.86472222,-36.45583333,2228</coordinates>
		</Point>
</Placemark>
<Placemark>
    <styleUrl>#icon0</styleUrl>
    <name>Bangong</name>
		<description><![CDATA[World's Ultras<BR><BR><B>NAME</B> = Bangong<BR><B>ELEVATION</B> = 6260<BR><B>PROMINENCE</B> = 1879<BR><B>ID</B> = AS270<BR><B>ALT_NAME</B> = <BR><B>COMMENT</B> = (cyrillic transliteration)<BR><B>COUNTRY</B> = China<BR><B>AUTHORS</B> = http://www.PEAKLIST.org]]></description>
		<Point>
			<coordinates>79.33666667,33.48166667,6260</coordinates>
		</Point>
</Placemark>
<Placemark>
    <styleUrl>#icon0</styleUrl>
    <name>Maromokotro</name>
		<description><![CDATA[World's Ultras<BR><BR><B>NAME</B> = Maromokotro<BR><B>ELEVATION</B> = 2876<BR><B>PROMINENCE</B> = 2876<BR><B>ID</B> = AF013<BR><B>ALT_NAME</B> = Tsaratanana<BR><B>COMMENT</B> = HP of Madagascar<BR><B>COUNTRY</B> = Madagascar<BR><B>AUTHORS</B> = http://www.PEAKLIST.org]]></description>
		<Point>
			<coordinates>48.96583333,-14.02333333,2876</coordinates>
		</Point>
</Placemark>
<Placemark>
    <styleUrl>#icon0</styleUrl>
    <name>Hotaka-dake</name>
		<description><![CDATA[World's Ultras<BR><BR><B>NAME</B> = Hotaka-dake<BR><B>ELEVATION</B> = 3190<BR><B>PROMINENCE</B> = 2307<BR><B>ID</B> = AS127<BR><B>ALT_NAME</B> = <BR><B>COMMENT</B> = <BR><B>COUNTRY</B> = Japan<BR><B>AUTHORS</B> = http://www.PEAKLIST.org]]></description>
		<Point>
			<coordinates>137.64805556,36.28916667,3190</coordinates>
		</Point>
</Placemark>
<Placemark>
    <styleUrl>#icon0</styleUrl>
    <name>Jof di Montasio</name>
		<description><![CDATA[World's Ultras<BR><BR><B>NAME</B> = Jof di Montasio<BR><B>ELEVATION</B> = 2752<BR><B>PROMINENCE</B> = 1596<BR><B>ID</B> = EU074<BR><B>ALT_NAME</B> = Montasch<BR><B>COMMENT</B> = <BR><B>COUNTRY</B> = Italy<BR><B>AUTHORS</B> = http://www.PEAKLIST.org]]></description>
		<Point>
			<coordinates>13.43361111,46.6025,2752</coordinates>
		</Point>
</Placemark>
<Placemark>
    <styleUrl>#icon0</styleUrl>
    <name>Cordillera Castillo</name>
		<description><![CDATA[World's Ultras<BR><BR><B>NAME</B> = Cordillera Castillo<BR><B>ELEVATION</B> = 2675<BR><B>PROMINENCE</B> = 2088<BR><B>ID</B> = SA083<BR><B>ALT_NAME</B> = <BR><B>COMMENT</B> = <BR><B>COUNTRY</B> = Chile<BR><B>AUTHORS</B> = http://www.PEAKLIST.org]]></description>
		<Point>
			<coordinates>-72.2075,-46.065,2675</coordinates>
		</Point>
</Placemark>
<Placemark>
    <styleUrl>#icon0</styleUrl>
    <name>Laikot</name>
		<description><![CDATA[World's Ultras<BR><BR><B>NAME</B> = Laikot<BR><B>ELEVATION</B> = 2832<BR><B>PROMINENCE</B> = 1659<BR><B>ID</B> = AS440<BR><B>ALT_NAME</B> = <BR><B>COMMENT</B> = <BR><B>COUNTRY</B> = India<BR><B>AUTHORS</B> = http://www.PEAKLIST.org]]></description>
		<Point>
			<coordinates>93.89916667,25.35666667,2832</coordinates>
		</Point>
</Placemark>
<Placemark>
    <styleUrl>#icon0</styleUrl>
    <name>Sierra la Laguna HP</name>
		<description><![CDATA[World's Ultras<BR><BR><B>NAME</B> = Sierra la Laguna HP<BR><B>ELEVATION</B> = 2090<BR><B>PROMINENCE</B> = 1920<BR><B>ID</B> = CE021<BR><B>ALT_NAME</B> = <BR><B>COMMENT</B> = <BR><B>COUNTRY</B> = Mexico<BR><B>AUTHORS</B> = http://www.PEAKLIST.org]]></description>
		<Point>
			<coordinates>-109.95416667,23.53916667,2090</coordinates>
		</Point>
</Placemark>
<Placemark>
    <styleUrl>#icon0</styleUrl>
    <name>Maja e Kendrevicës</name>
		<description><![CDATA[World's Ultras<BR><BR><B>NAME</B> = Maja e Kendrevicës<BR><B>ELEVATION</B> = 2121<BR><B>PROMINENCE</B> = 1666<BR><B>ID</B> = EU067<BR><B>ALT_NAME</B> = <BR><B>COMMENT</B> = <BR><B>COUNTRY</B> = Albania<BR><B>AUTHORS</B> = http://www.PEAKLIST.org]]></description>
		<Point>
			<coordinates>19.85166667,40.28694444,2121</coordinates>
		</Point>
</Placemark>
<Placemark>
    <styleUrl>#icon0</styleUrl>
    <name>Storo HP</name>
		<description><![CDATA[World's Ultras<BR><BR><B>NAME</B> = Storo HP<BR><B>ELEVATION</B> = 1770<BR><B>PROMINENCE</B> = 1770<BR><B>ID</B> = GN013<BR><B>ALT_NAME</B> = <BR><B>COMMENT</B> = <BR><B>COUNTRY</B> = Greenland<BR><B>AUTHORS</B> = http://www.PEAKLIST.org]]></description>
		<Point>
			<coordinates>-27.48333333,70.83333333,1770</coordinates>
		</Point>
</Placemark>
<Placemark>
    <styleUrl>#icon0</styleUrl>
    <name>Ak Tag</name>
		<description><![CDATA[World's Ultras<BR><BR><B>NAME</B> = Ak Tag<BR><B>ELEVATION</B> = 6748<BR><B>PROMINENCE</B> = 1920<BR><B>ID</B> = AS214<BR><B>ALT_NAME</B> = <BR><B>COMMENT</B> = <BR><B>COUNTRY</B> = China<BR><B>AUTHORS</B> = http://www.PEAKLIST.org]]></description>
		<Point>
			<coordinates>84.60166667,36.72416667,6748.000000000001</coordinates>
		</Point>
</Placemark>
<Placemark>
    <styleUrl>#icon0</styleUrl>
    <name>Dunheger</name>
		<description><![CDATA[World's Ultras<BR><BR><B>NAME</B> = Dunheger<BR><B>ELEVATION</B> = 3315<BR><B>PROMINENCE</B> = 2075<BR><B>ID</B> = AN019<BR><B>ALT_NAME</B> = <BR><B>COMMENT</B> = HP of Baytik Shan<BR><B>COUNTRY</B> = China, Mongolia<BR><B>AUTHORS</B> = http://www.PEAKLIST.org]]></description>
		<Point>
			<coordinates>90.90666667000001,45.1925,3315</coordinates>
		</Point>
</Placemark>
<Placemark>
    <styleUrl>#icon0</styleUrl>
    <name>Yuzhno Muiskyy Khrebet HP</name>
		<description><![CDATA[World's Ultras<BR><BR><B>NAME</B> = Yuzhno Muiskyy Khrebet HP<BR><B>ELEVATION</B> = 3067<BR><B>PROMINENCE</B> = 2107<BR><B>ID</B> = AN018<BR><B>ALT_NAME</B> = <BR><B>COMMENT</B> = <BR><B>COUNTRY</B> = Russia<BR><B>AUTHORS</B> = http://www.PEAKLIST.org]]></description>
		<Point>
			<coordinates>114.43916667,55.97416667,3067</coordinates>
		</Point>
</Placemark>
<Placemark>
    <styleUrl>#icon0</styleUrl>
    <name>K/ech/a Terara</name>
		<description><![CDATA[World's Ultras<BR><BR><B>NAME</B> = K/ech/a Terara<BR><B>ELEVATION</B> = 4195<BR><B>PROMINENCE</B> = 1605<BR><B>ID</B> = AF067<BR><B>ALT_NAME</B> = Bada<BR><B>COMMENT</B> = <BR><B>COUNTRY</B> = Ethiopia<BR><B>AUTHORS</B> = http://www.PEAKLIST.org]]></description>
		<Point>
			<coordinates>39.39166667,7.908333329999999,4195</coordinates>
		</Point>
</Placemark>
<Placemark>
    <styleUrl>#icon0</styleUrl>
    <name>Cerro de Campanario</name>
		<description><![CDATA[World's Ultras<BR><BR><B>NAME</B> = Cerro de Campanario<BR><B>ELEVATION</B> = 4010<BR><B>PROMINENCE</B> = 1778<BR><B>ID</B> = SA111<BR><B>ALT_NAME</B> = <BR><B>COMMENT</B> = <BR><B>COUNTRY</B> = Peru<BR><B>AUTHORS</B> = http://www.PEAKLIST.org]]></description>
		<Point>
			<coordinates>-77.5975,-6.02416667,4010</coordinates>
		</Point>
</Placemark>
<Placemark>
    <styleUrl>#icon0</styleUrl>
    <name>Dainiti Dake</name>
		<description><![CDATA[World's Ultras<BR><BR><B>NAME</B> = Dainiti Dake<BR><B>ELEVATION</B> = 2128<BR><B>PROMINENCE</B> = 1593<BR><B>ID</B> = AS547<BR><B>ALT_NAME</B> = <BR><B>COMMENT</B> = <BR><B>COUNTRY</B> = Japan<BR><B>AUTHORS</B> = http://www.PEAKLIST.org]]></description>
		<Point>
			<coordinates>139.65916667,37.8325,2128</coordinates>
		</Point>
</Placemark>
<Placemark>
    <styleUrl>#icon0</styleUrl>
    <name>Clavering Island HP</name>
		<description><![CDATA[World's Ultras<BR><BR><B>NAME</B> = Clavering Island HP<BR><B>ELEVATION</B> = 1604<BR><B>PROMINENCE</B> = 1604<BR><B>ID</B> = GN027<BR><B>ALT_NAME</B> = <BR><B>COMMENT</B> = <BR><B>COUNTRY</B> = Greenland<BR><B>AUTHORS</B> = http://www.PEAKLIST.org]]></description>
		<Point>
			<coordinates>-21.18333333,74.36666667,1604</coordinates>
		</Point>
</Placemark>
<Placemark>
    <styleUrl>#icon0</styleUrl>
    <name>Hajhir</name>
		<description><![CDATA[World's Ultras<BR><BR><B>NAME</B> = Hajhir<BR><B>ELEVATION</B> = 1505<BR><B>PROMINENCE</B> = 1505<BR><B>ID</B> = AS723<BR><B>ALT_NAME</B> = <BR><B>COMMENT</B> = HP of Socotra<BR><B>COUNTRY</B> = Yemen<BR><B>AUTHORS</B> = http://www.PEAKLIST.org]]></description>
		<Point>
			<coordinates>54.02083333,12.57416667,1505</coordinates>
		</Point>
</Placemark>
<Placemark>
    <styleUrl>#icon0</styleUrl>
    <name>Geladaindong</name>
		<description><![CDATA[World's Ultras<BR><BR><B>NAME</B> = Geladaindong<BR><B>ELEVATION</B> = 6621<BR><B>PROMINENCE</B> = 1541<BR><B>ID</B> = AS605<BR><B>ALT_NAME</B> = Geladandong<BR><B>COMMENT</B> = <BR><B>COUNTRY</B> = China<BR><B>AUTHORS</B> = http://www.PEAKLIST.org]]></description>
		<Point>
			<coordinates>91.16749999999999,33.49583333,6621.000000000001</coordinates>
		</Point>
</Placemark>
<Placemark>
    <styleUrl>#icon0</styleUrl>
    <name>Thudaka Peak</name>
		<description><![CDATA[World's Ultras<BR><BR><B>NAME</B> = Thudaka Peak<BR><B>ELEVATION</B> = 2748<BR><B>PROMINENCE</B> = 1736<BR><B>ID</B> = CN070<BR><B>ALT_NAME</B> = <BR><B>COMMENT</B> = <BR><B>COUNTRY</B> = Canada<BR><B>AUTHORS</B> = http://www.PEAKLIST.org]]></description>
		<Point>
			<coordinates>-126.84833333,57.92694444000001,2748</coordinates>
		</Point>
</Placemark>
<Placemark>
    <styleUrl>#icon0</styleUrl>
    <name>Qullai Istiqlol</name>
		<description><![CDATA[World's Ultras<BR><BR><B>NAME</B> = Qullai Istiqlol<BR><B>ELEVATION</B> = 7134<BR><B>PROMINENCE</B> = 2790<BR><B>ID</B> = AS060<BR><B>ALT_NAME</B> = ex. Lenina, Pik Achiktash<BR><B>COMMENT</B> = <BR><B>COUNTRY</B> = Kyrgyzstan, Tajikistan<BR><B>AUTHORS</B> = http://www.PEAKLIST.org]]></description>
		<Point>
			<coordinates>72.8775,39.3425,7134</coordinates>
		</Point>
</Placemark>
<Placemark>
    <styleUrl>#icon0</styleUrl>
    <name>Anai Mudi</name>
		<description><![CDATA[World's Ultras<BR><BR><B>NAME</B> = Anai Mudi<BR><B>ELEVATION</B> = 2694<BR><B>PROMINENCE</B> = 2479<BR><B>ID</B> = AS090<BR><B>ALT_NAME</B> = <BR><B>COMMENT</B> = <BR><B>COUNTRY</B> = India<BR><B>AUTHORS</B> = http://www.PEAKLIST.org]]></description>
		<Point>
			<coordinates>77.06083332999999,10.17,2694</coordinates>
		</Point>
</Placemark>
<Placemark>
    <styleUrl>#icon0</styleUrl>
    <name>Barurumea Ridge</name>
		<description><![CDATA[World's Ultras<BR><BR><B>NAME</B> = Barurumea Ridge<BR><B>ELEVATION</B> = 2063<BR><B>PROMINENCE</B> = 1723<BR><B>ID</B> = PN022<BR><B>ALT_NAME</B> = <BR><B>COMMENT</B> = HP of Bainings Mtns.<BR><B>COUNTRY</B> = Papua New Guinea<BR><B>AUTHORS</B> = http://www.PEAKLIST.org]]></description>
		<Point>
			<coordinates>152.05333333,-4.74583333,2063</coordinates>
		</Point>
</Placemark>
<Placemark>
    <styleUrl>#icon0</styleUrl>
    <name>Ge/nyen</name>
		<description><![CDATA[World's Ultras<BR><BR><B>NAME</B> = Ge/nyen<BR><B>ELEVATION</B> = 6204<BR><B>PROMINENCE</B> = 2000<BR><B>ID</B> = AS223<BR><B>ALT_NAME</B> = Haizi, Genie, Gombu<BR><B>COMMENT</B> = <BR><B>COUNTRY</B> = China<BR><B>AUTHORS</B> = http://www.PEAKLIST.org]]></description>
		<Point>
			<coordinates>99.60583333,29.8075,6204</coordinates>
		</Point>
</Placemark>
<Placemark>
    <styleUrl>#icon0</styleUrl>
    <name>Kuh-e Belandtarin</name>
		<description><![CDATA[World's Ultras<BR><BR><B>NAME</B> = Kuh-e Belandtarin<BR><B>ELEVATION</B> = 6286<BR><B>PROMINENCE</B> = 2008<BR><B>ID</B> = AS155<BR><B>ALT_NAME</B> = <BR><B>COMMENT</B> = <BR><B>COUNTRY</B> = Afghanistan<BR><B>AUTHORS</B> = http://www.PEAKLIST.org]]></description>
		<Point>
			<coordinates>73.215,37.14583333,6286</coordinates>
		</Point>
</Placemark>
<Placemark>
    <styleUrl>#icon0</styleUrl>
    <name>Mt. Saugstad</name>
		<description><![CDATA[World's Ultras<BR><BR><B>NAME</B> = Mt. Saugstad<BR><B>ELEVATION</B> = 2908<BR><B>PROMINENCE</B> = 1850<BR><B>ID</B> = CN053<BR><B>ALT_NAME</B> = <BR><B>COMMENT</B> = <BR><B>COUNTRY</B> = Canada<BR><B>AUTHORS</B> = http://www.PEAKLIST.org]]></description>
		<Point>
			<coordinates>-126.515,52.25333333,2908</coordinates>
		</Point>
</Placemark>
<Placemark>
    <styleUrl>#icon0</styleUrl>
    <name>Kamakou</name>
		<description><![CDATA[World's Ultras<BR><BR><B>NAME</B> = Kamakou<BR><B>ELEVATION</B> = 1512<BR><B>PROMINENCE</B> = 1512<BR><B>ID</B> = HI006<BR><B>ALT_NAME</B> = <BR><B>COMMENT</B> = HP of Molokai<BR><B>COUNTRY</B> = USA<BR><B>AUTHORS</B> = http://www.PEAKLIST.org]]></description>
		<Point>
			<coordinates>-156.86861111,21.10666667,1512</coordinates>
		</Point>
</Placemark>
<Placemark>
    <styleUrl>#icon0</styleUrl>
    <name>Mila Kuh</name>
		<description><![CDATA[World's Ultras<BR><BR><B>NAME</B> = Mila Kuh<BR><B>ELEVATION</B> = 2888<BR><B>PROMINENCE</B> = 1686<BR><B>ID</B> = AS407<BR><B>ALT_NAME</B> = <BR><B>COMMENT</B> = <BR><B>COUNTRY</B> = Iran<BR><B>AUTHORS</B> = http://www.PEAKLIST.org]]></description>
		<Point>
			<coordinates>59.85833333,33.755,2888</coordinates>
		</Point>
</Placemark>
<Placemark>
    <styleUrl>#icon0</styleUrl>
    <name>Cerro Elefantes</name>
		<description><![CDATA[World's Ultras<BR><BR><B>NAME</B> = Cerro Elefantes<BR><B>ELEVATION</B> = 2000<BR><B>PROMINENCE</B> = 1671<BR><B>ID</B> = SA139<BR><B>ALT_NAME</B> = <BR><B>COMMENT</B> = <BR><B>COUNTRY</B> = Chile<BR><B>AUTHORS</B> = http://www.PEAKLIST.org]]></description>
		<Point>
			<coordinates>-72.425,-44.75583333,2000</coordinates>
		</Point>
</Placemark>
<Placemark>
    <styleUrl>#icon0</styleUrl>
    <name>Jibal Raymah</name>
		<description><![CDATA[World's Ultras<BR><BR><B>NAME</B> = Jibal Raymah<BR><B>ELEVATION</B> = 2920<BR><B>PROMINENCE</B> = 1635<BR><B>ID</B> = AS722<BR><B>ALT_NAME</B> = <BR><B>COMMENT</B> = <BR><B>COUNTRY</B> = Yemen<BR><B>AUTHORS</B> = http://www.PEAKLIST.org]]></description>
		<Point>
			<coordinates>43.65666667,14.68,2920</coordinates>
		</Point>
</Placemark>
<Placemark>
    <styleUrl>#icon0</styleUrl>
    <name>Pt. 8010</name>
		<description><![CDATA[World's Ultras<BR><BR><B>NAME</B> = Pt. 8010<BR><B>ELEVATION</B> = 2441<BR><B>PROMINENCE</B> = 1877<BR><B>ID</B> = AK031<BR><B>ALT_NAME</B> = <BR><B>COMMENT</B> = Unnamed<BR><B>COUNTRY</B> = USA<BR><B>AUTHORS</B> = http://www.PEAKLIST.org]]></description>
		<Point>
			<coordinates>-144.81305556,61.16055556,2441</coordinates>
		</Point>
</Placemark>
<Placemark>
    <styleUrl>#icon0</styleUrl>
    <name>Ritacuba Blanco</name>
		<description><![CDATA[World's Ultras<BR><BR><B>NAME</B> = Ritacuba Blanco<BR><B>ELEVATION</B> = 5410<BR><B>PROMINENCE</B> = 3645<BR><B>ID</B> = SA005<BR><B>ALT_NAME</B> = <BR><B>COMMENT</B> = <BR><B>COUNTRY</B> = Colombia<BR><B>AUTHORS</B> = http://www.PEAKLIST.org]]></description>
		<Point>
			<coordinates>-72.2975,6.49416667,5410</coordinates>
		</Point>
</Placemark>
<Placemark>
    <styleUrl>#icon0</styleUrl>
    <name>Dashennongjia</name>
		<description><![CDATA[World's Ultras<BR><BR><B>NAME</B> = Dashennongjia<BR><B>ELEVATION</B> = 3100<BR><B>PROMINENCE</B> = 2270<BR><B>ID</B> = AS134<BR><B>ALT_NAME</B> = <BR><B>COMMENT</B> = <BR><B>COUNTRY</B> = China<BR><B>AUTHORS</B> = http://www.PEAKLIST.org]]></description>
		<Point>
			<coordinates>110.3075,31.44,3100</coordinates>
		</Point>
</Placemark>
<Placemark>
    <styleUrl>#icon0</styleUrl>
    <name>Serrania Guanay</name>
		<description><![CDATA[World's Ultras<BR><BR><B>NAME</B> = Serrania Guanay<BR><B>ELEVATION</B> = 2392<BR><B>PROMINENCE</B> = 2026<BR><B>ID</B> = SA063<BR><B>ALT_NAME</B> = <BR><B>COMMENT</B> = <BR><B>COUNTRY</B> = Venezuela<BR><B>AUTHORS</B> = http://www.PEAKLIST.org]]></description>
		<Point>
			<coordinates>-66.19166667,5.76583333,2392</coordinates>
		</Point>
</Placemark>
<Placemark>
    <styleUrl>#icon0</styleUrl>
    <name>Kuhha-ye Alborz</name>
		<description><![CDATA[World's Ultras<BR><BR><B>NAME</B> = Kuhha-ye Alborz<BR><B>ELEVATION</B> = 4805<BR><B>PROMINENCE</B> = 1827<BR><B>ID</B> = AS295<BR><B>ALT_NAME</B> = <BR><B>COMMENT</B> = <BR><B>COUNTRY</B> = Iran<BR><B>AUTHORS</B> = http://www.PEAKLIST.org]]></description>
		<Point>
			<coordinates>50.96250000000001,36.37583333,4805</coordinates>
		</Point>
</Placemark>
<Placemark>
    <styleUrl>#icon0</styleUrl>
    <name>Shengena</name>
		<description><![CDATA[World's Ultras<BR><BR><B>NAME</B> = Shengena<BR><B>ELEVATION</B> = 2464<BR><B>PROMINENCE</B> = 1750<BR><B>ID</B> = AF046<BR><B>ALT_NAME</B> = <BR><B>COMMENT</B> = <BR><B>COUNTRY</B> = Tanzania<BR><B>AUTHORS</B> = http://www.PEAKLIST.org]]></description>
		<Point>
			<coordinates>37.93166667,-4.2675,2464</coordinates>
		</Point>
</Placemark>
<Placemark>
    <styleUrl>#icon0</styleUrl>
    <name>Adrar Bou Nasser</name>
		<description><![CDATA[World's Ultras<BR><BR><B>NAME</B> = Adrar Bou Nasser<BR><B>ELEVATION</B> = 3340<BR><B>PROMINENCE</B> = 1642<BR><B>ID</B> = AF061<BR><B>ALT_NAME</B> = <BR><B>COMMENT</B> = <BR><B>COUNTRY</B> = Morocco<BR><B>AUTHORS</B> = http://www.PEAKLIST.org]]></description>
		<Point>
			<coordinates>-3.88583333,33.56833333,3340</coordinates>
		</Point>
</Placemark>
<Placemark>
    <styleUrl>#icon0</styleUrl>
    <name>Serra da Mocidade</name>
		<description><![CDATA[World's Ultras<BR><BR><B>NAME</B> = Serra da Mocidade<BR><B>ELEVATION</B> = 1980<BR><B>PROMINENCE</B> = 1830<BR><B>ID</B> = SA098<BR><B>ALT_NAME</B> = <BR><B>COMMENT</B> = <BR><B>COUNTRY</B> = Brazil<BR><B>AUTHORS</B> = http://www.PEAKLIST.org]]></description>
		<Point>
			<coordinates>-61.7925,1.74666667,1980</coordinates>
		</Point>
</Placemark>
<Placemark>
    <styleUrl>#icon0</styleUrl>
    <name>Hunhua Shan</name>
		<description><![CDATA[World's Ultras<BR><BR><B>NAME</B> = Hunhua Shan<BR><B>ELEVATION</B> = 3420<BR><B>PROMINENCE</B> = 1718<BR><B>ID</B> = AS383<BR><B>ALT_NAME</B> = <BR><B>COMMENT</B> = (cyrillic transliteration)<BR><B>COUNTRY</B> = China<BR><B>AUTHORS</B> = http://www.PEAKLIST.org]]></description>
		<Point>
			<coordinates>100.26083333,23.9575,3420</coordinates>
		</Point>
</Placemark>
<Placemark>
    <styleUrl>#icon0</styleUrl>
    <name>Gora Bogchigir</name>
		<description><![CDATA[World's Ultras<BR><BR><B>NAME</B> = Gora Bogchigir<BR><B>ELEVATION</B> = 5800<BR><B>PROMINENCE</B> = 1524<BR><B>ID</B> = AS589<BR><B>ALT_NAME</B> = <BR><B>COMMENT</B> = <BR><B>COUNTRY</B> = Tajikstan<BR><B>AUTHORS</B> = http://www.PEAKLIST.org]]></description>
		<Point>
			<coordinates>72.70833333,37.66666667,5800</coordinates>
		</Point>
</Placemark>
<Placemark>
    <styleUrl>#icon0</styleUrl>
    <name>Kuh-e Shashgal</name>
		<description><![CDATA[World's Ultras<BR><BR><B>NAME</B> = Kuh-e Shashgal<BR><B>ELEVATION</B> = 6290<BR><B>PROMINENCE</B> = 1758<BR><B>ID</B> = AS331<BR><B>ALT_NAME</B> = Kuh-e Chrebek<BR><B>COMMENT</B> = <BR><B>COUNTRY</B> = Afghanistan<BR><B>AUTHORS</B> = http://www.PEAKLIST.org]]></description>
		<Point>
			<coordinates>71.08,35.93,6290</coordinates>
		</Point>
</Placemark>
<Placemark>
    <styleUrl>#icon0</styleUrl>
    <name>Grand Combin de Grafeneire</name>
		<description><![CDATA[World's Ultras<BR><BR><B>NAME</B> = Grand Combin de Grafeneire<BR><B>ELEVATION</B> = 4314<BR><B>PROMINENCE</B> = 1517<BR><B>ID</B> = EU093<BR><B>ALT_NAME</B> = <BR><B>COMMENT</B> = <BR><B>COUNTRY</B> = Switzerland<BR><B>AUTHORS</B> = http://www.PEAKLIST.org]]></description>
		<Point>
			<coordinates>7.299166669999999,45.9375,4314</coordinates>
		</Point>
</Placemark>
<Placemark>
    <styleUrl>#icon0</styleUrl>
    <name>Muztagh Tower</name>
		<description><![CDATA[World's Ultras<BR><BR><B>NAME</B> = Muztagh Tower<BR><B>ELEVATION</B> = 7276<BR><B>PROMINENCE</B> = 1710<BR><B>ID</B> = AS339<BR><B>ALT_NAME</B> = <BR><B>COMMENT</B> = <BR><B>COUNTRY</B> = China, Pakistan<BR><B>AUTHORS</B> = http://www.PEAKLIST.org]]></description>
		<Point>
			<coordinates>76.36166667000001,35.82666667,7276</coordinates>
		</Point>
</Placemark>
<Placemark>
    <styleUrl>#icon0</styleUrl>
    <name>Mt. Sicapoo</name>
		<description><![CDATA[World's Ultras<BR><BR><B>NAME</B> = Mt. Sicapoo<BR><B>ELEVATION</B> = 2361<BR><B>PROMINENCE</B> = 1581<BR><B>ID</B> = AS517<BR><B>ALT_NAME</B> = <BR><B>COMMENT</B> = <BR><B>COUNTRY</B> = Philippines<BR><B>AUTHORS</B> = http://www.PEAKLIST.org]]></description>
		<Point>
			<coordinates>120.93916667,18.01333333,2361</coordinates>
		</Point>
</Placemark>
<Placemark>
    <styleUrl>#icon0</styleUrl>
    <name>Qornet es Saouda</name>
		<description><![CDATA[World's Ultras<BR><BR><B>NAME</B> = Qornet es Saouda<BR><B>ELEVATION</B> = 3087<BR><B>PROMINENCE</B> = 2392<BR><B>ID</B> = AS106<BR><B>ALT_NAME</B> = Qurnat as Sawda<BR><B>COMMENT</B> = HP of Lebanon.<BR><B>COUNTRY</B> = Lebanon<BR><B>AUTHORS</B> = http://www.PEAKLIST.org]]></description>
		<Point>
			<coordinates>36.11666667,34.30083333,3087</coordinates>
		</Point>
</Placemark>
<Placemark>
    <styleUrl>#icon0</styleUrl>
    <name>Kuh-e Raziyeh</name>
		<description><![CDATA[World's Ultras<BR><BR><B>NAME</B> = Kuh-e Raziyeh<BR><B>ELEVATION</B> = 3120<BR><B>PROMINENCE</B> = 1510<BR><B>ID</B> = AS613<BR><B>ALT_NAME</B> = <BR><B>COMMENT</B> = <BR><B>COUNTRY</B> = Iran<BR><B>AUTHORS</B> = http://www.PEAKLIST.org]]></description>
		<Point>
			<coordinates>50.27583333,31.12583333,3120</coordinates>
		</Point>
</Placemark>
<Placemark>
    <styleUrl>#icon0</styleUrl>
    <name>Gunung Mulu</name>
		<description><![CDATA[World's Ultras<BR><BR><B>NAME</B> = Gunung Mulu<BR><B>ELEVATION</B> = 2376<BR><B>PROMINENCE</B> = 2024<BR><B>ID</B> = AS195<BR><B>ALT_NAME</B> = <BR><B>COMMENT</B> = <BR><B>COUNTRY</B> = Malaysia<BR><B>AUTHORS</B> = http://www.PEAKLIST.org]]></description>
		<Point>
			<coordinates>114.93,4.04583333,2376</coordinates>
		</Point>
</Placemark>
<Placemark>
    <styleUrl>#icon0</styleUrl>
    <name>Mt. Jackson</name>
		<description><![CDATA[World's Ultras<BR><BR><B>NAME</B> = Mt. Jackson<BR><B>ELEVATION</B> = 3184<BR><B>PROMINENCE</B> = 2187<BR><B>ID</B> = AN036<BR><B>ALT_NAME</B> = <BR><B>COMMENT</B> = <BR><B>COUNTRY</B> = Antarctica<BR><B>AUTHORS</B> = http://www.PEAKLIST.org]]></description>
		<Point>
			<coordinates>-63.36666667,-71.38333333,3184</coordinates>
		</Point>
</Placemark>
<Placemark>
    <styleUrl>#icon0</styleUrl>
    <name>K2</name>
		<description><![CDATA[World's Ultras<BR><BR><B>NAME</B> = K2<BR><B>ELEVATION</B> = 8611<BR><B>PROMINENCE</B> = 4017<BR><B>ID</B> = AS010<BR><B>ALT_NAME</B> = Chogori, Qogir Feng<BR><B>COMMENT</B> = World/s second highest summit, and one of fourteen 8,000 meter peaks. HP of Pakistan.<BR><B>COUNTRY</B> = China, Pakistan<BR><B>AUTHORS</B> = http://www.PEAKLIST.org]]></description>
		<Point>
			<coordinates>76.51333332999999,35.8825,8611</coordinates>
		</Point>
</Placemark>
<Placemark>
    <styleUrl>#icon0</styleUrl>
    <name>Cerro el Condor</name>
		<description><![CDATA[World's Ultras<BR><BR><B>NAME</B> = Cerro el Condor<BR><B>ELEVATION</B> = 6414<BR><B>PROMINENCE</B> = 1660<BR><B>ID</B> = SA135<BR><B>ALT_NAME</B> = <BR><B>COMMENT</B> = <BR><B>COUNTRY</B> = Argentina<BR><B>AUTHORS</B> = http://www.PEAKLIST.org]]></description>
		<Point>
			<coordinates>-68.36166667000001,-26.63166667,6414</coordinates>
		</Point>
</Placemark>
<Placemark>
    <styleUrl>#icon0</styleUrl>
    <name>K/ech/a Terara</name>
		<description><![CDATA[World's Ultras<BR><BR><B>NAME</B> = K/ech/a Terara<BR><B>ELEVATION</B> = 3240<BR><B>PROMINENCE</B> = 1510<BR><B>ID</B> = AF087<BR><B>ALT_NAME</B> = Delo (alternate)<BR><B>COMMENT</B> = <BR><B>COUNTRY</B> = Ethiopia<BR><B>AUTHORS</B> = http://www.PEAKLIST.org]]></description>
		<Point>
			<coordinates>37.83916667,5.82083333,3240</coordinates>
		</Point>
</Placemark>
<Placemark>
    <styleUrl>#icon0</styleUrl>
    <name>Kuh-e Khabr</name>
		<description><![CDATA[World's Ultras<BR><BR><B>NAME</B> = Kuh-e Khabr<BR><B>ELEVATION</B> = 3856<BR><B>PROMINENCE</B> = 1758<BR><B>ID</B> = AS344<BR><B>ALT_NAME</B> = <BR><B>COMMENT</B> = <BR><B>COUNTRY</B> = Iran<BR><B>AUTHORS</B> = http://www.PEAKLIST.org]]></description>
		<Point>
			<coordinates>56.41333333,28.8175,3856</coordinates>
		</Point>
</Placemark>
<Placemark>
    <styleUrl>#icon0</styleUrl>
    <name>Kertau</name>
		<description><![CDATA[World's Ultras<BR><BR><B>NAME</B> = Kertau<BR><B>ELEVATION</B> = 3282<BR><B>PROMINENCE</B> = 2365<BR><B>ID</B> = AN009<BR><B>ALT_NAME</B> = <BR><B>COMMENT</B> = (cyrillic transliteration)<BR><B>COUNTRY</B> = China<BR><B>AUTHORS</B> = http://www.PEAKLIST.org]]></description>
		<Point>
			<coordinates>82.75749999999999,45.7425,3282</coordinates>
		</Point>
</Placemark>
<Placemark>
    <styleUrl>#icon0</styleUrl>
    <name>Mt. Ida</name>
		<description><![CDATA[World's Ultras<BR><BR><B>NAME</B> = Mt. Ida<BR><B>ELEVATION</B> = 3200<BR><B>PROMINENCE</B> = 1530<BR><B>ID</B> = CN128<BR><B>ALT_NAME</B> = <BR><B>COMMENT</B> = <BR><B>COUNTRY</B> = Canada<BR><B>AUTHORS</B> = http://www.PEAKLIST.org]]></description>
		<Point>
			<coordinates>-120.32638889,54.05833333,3200</coordinates>
		</Point>
</Placemark>
<Placemark>
    <styleUrl>#icon0</styleUrl>
    <name>Chiltan</name>
		<description><![CDATA[World's Ultras<BR><BR><B>NAME</B> = Chiltan<BR><B>ELEVATION</B> = 3313<BR><B>PROMINENCE</B> = 1503<BR><B>ID</B> = <BR><B>ALT_NAME</B> = <BR><B>COMMENT</B> = <BR><B>COUNTRY</B> = Pakistan<BR><B>AUTHORS</B> = http://www.PEAKLIST.org]]></description>
		<Point>
			<coordinates>66.82805556,30.01555556,3313</coordinates>
		</Point>
</Placemark>
<Placemark>
    <styleUrl>#icon0</styleUrl>
    <name>Mulkila</name>
		<description><![CDATA[World's Ultras<BR><BR><B>NAME</B> = Mulkila<BR><B>ELEVATION</B> = 6517<BR><B>PROMINENCE</B> = 1586<BR><B>ID</B> = AS412<BR><B>ALT_NAME</B> = <BR><B>COMMENT</B> = <BR><B>COUNTRY</B> = India<BR><B>AUTHORS</B> = http://www.PEAKLIST.org]]></description>
		<Point>
			<coordinates>77.41166667,32.54583333,6516.999999999999</coordinates>
		</Point>
</Placemark>
<Placemark>
    <styleUrl>#icon0</styleUrl>
    <name>P. 6086</name>
		<description><![CDATA[World's Ultras<BR><BR><B>NAME</B> = P. 6086<BR><B>ELEVATION</B> = 6086<BR><B>PROMINENCE</B> = 1618<BR><B>ID</B> = AS484<BR><B>ALT_NAME</B> = <BR><B>COMMENT</B> = Unknown Name<BR><B>COUNTRY</B> = India<BR><B>AUTHORS</B> = http://www.PEAKLIST.org]]></description>
		<Point>
			<coordinates>76.79416667,34.02833333,6086</coordinates>
		</Point>
</Placemark>
<Placemark>
    <styleUrl>#icon0</styleUrl>
    <name>Farallones de Cali</name>
		<description><![CDATA[World's Ultras<BR><BR><B>NAME</B> = Farallones de Cali<BR><B>ELEVATION</B> = 4050<BR><B>PROMINENCE</B> = 2309<BR><B>ID</B> = SA032<BR><B>ALT_NAME</B> = <BR><B>COMMENT</B> = <BR><B>COUNTRY</B> = Colombia<BR><B>AUTHORS</B> = http://www.PEAKLIST.org]]></description>
		<Point>
			<coordinates>-76.69583333,3.34416667,4050</coordinates>
		</Point>
</Placemark>
<Placemark>
    <styleUrl>#icon0</styleUrl>
    <name>Mai Gudo</name>
		<description><![CDATA[World's Ultras<BR><BR><B>NAME</B> = Mai Gudo<BR><B>ELEVATION</B> = 3359<BR><B>PROMINENCE</B> = 1589<BR><B>ID</B> = AF075<BR><B>ALT_NAME</B> = <BR><B>COMMENT</B> = <BR><B>COUNTRY</B> = Ethiopia<BR><B>AUTHORS</B> = http://www.PEAKLIST.org]]></description>
		<Point>
			<coordinates>37.20416667,7.49083333,3359</coordinates>
		</Point>
</Placemark>
<Placemark>
    <styleUrl>#icon0</styleUrl>
    <name>Kuh-e Par-e Lavar</name>
		<description><![CDATA[World's Ultras<BR><BR><B>NAME</B> = Kuh-e Par-e Lavar<BR><B>ELEVATION</B> = 2209<BR><B>PROMINENCE</B> = 1530<BR><B>ID</B> = AS596<BR><B>ALT_NAME</B> = <BR><B>COMMENT</B> = <BR><B>COUNTRY</B> = Iran<BR><B>AUTHORS</B> = http://www.PEAKLIST.org]]></description>
		<Point>
			<coordinates>54.53916667,27.19416667,2209</coordinates>
		</Point>
</Placemark>
<Placemark>
    <styleUrl>#icon0</styleUrl>
    <name>Noshaq</name>
		<description><![CDATA[World's Ultras<BR><BR><B>NAME</B> = Noshaq<BR><B>ELEVATION</B> = 7492<BR><B>PROMINENCE</B> = 2024<BR><B>ID</B> = AS203<BR><B>ALT_NAME</B> = <BR><B>COMMENT</B> = HP of Afghanistan.<BR><B>COUNTRY</B> = Afghanistan, Pakistan<BR><B>AUTHORS</B> = http://www.PEAKLIST.org]]></description>
		<Point>
			<coordinates>71.82833333000001,36.43166667,7492</coordinates>
		</Point>
</Placemark>
<Placemark>
    <styleUrl>#icon0</styleUrl>
    <name>Shikar Beh</name>
		<description><![CDATA[World's Ultras<BR><BR><B>NAME</B> = Shikar Beh<BR><B>ELEVATION</B> = 6200<BR><B>PROMINENCE</B> = 2223<BR><B>ID</B> = AS152<BR><B>ALT_NAME</B> = <BR><B>COMMENT</B> = <BR><B>COUNTRY</B> = India<BR><B>AUTHORS</B> = http://www.PEAKLIST.org]]></description>
		<Point>
			<coordinates>77.07083333,32.4175,6200</coordinates>
		</Point>
</Placemark>
<Placemark>
    <styleUrl>#icon0</styleUrl>
    <name>Gora Shan</name>
		<description><![CDATA[World's Ultras<BR><BR><B>NAME</B> = Gora Shan<BR><B>ELEVATION</B> = 4451<BR><B>PROMINENCE</B> = 1775<BR><B>ID</B> = AS332<BR><B>ALT_NAME</B> = <BR><B>COMMENT</B> = <BR><B>COUNTRY</B> = Georgia, Russia<BR><B>AUTHORS</B> = http://www.PEAKLIST.org]]></description>
		<Point>
			<coordinates>44.7575,42.67583333,4451</coordinates>
		</Point>
</Placemark>
<Placemark>
    <styleUrl>#icon0</styleUrl>
    <name>Chu Yang Sin</name>
		<description><![CDATA[World's Ultras<BR><BR><B>NAME</B> = Chu Yang Sin<BR><B>ELEVATION</B> = 2420<BR><B>PROMINENCE</B> = 2055<BR><B>ID</B> = AS184<BR><B>ALT_NAME</B> = <BR><B>COMMENT</B> = <BR><B>COUNTRY</B> = Vietnam<BR><B>AUTHORS</B> = http://www.PEAKLIST.org]]></description>
		<Point>
			<coordinates>108.42416667,12.40583333,2420</coordinates>
		</Point>
</Placemark>
<Placemark>
    <styleUrl>#icon0</styleUrl>
    <name>Gannett Peak</name>
		<description><![CDATA[World's Ultras<BR><BR><B>NAME</B> = Gannett Peak<BR><B>ELEVATION</B> = 4208<BR><B>PROMINENCE</B> = 2158<BR><B>ID</B> = US015<BR><B>ALT_NAME</B> = <BR><B>COMMENT</B> = <BR><B>COUNTRY</B> = USA<BR><B>AUTHORS</B> = http://www.PEAKLIST.org]]></description>
		<Point>
			<coordinates>-109.65361111,43.18416667,4208</coordinates>
		</Point>
</Placemark>
<Placemark>
    <styleUrl>#icon0</styleUrl>
    <name>Cumbres Calchaquies</name>
		<description><![CDATA[World's Ultras<BR><BR><B>NAME</B> = Cumbres Calchaquies<BR><B>ELEVATION</B> = 4740<BR><B>PROMINENCE</B> = 1688<BR><B>ID</B> = SA132<BR><B>ALT_NAME</B> = <BR><B>COMMENT</B> = <BR><B>COUNTRY</B> = Argentina<BR><B>AUTHORS</B> = http://www.PEAKLIST.org]]></description>
		<Point>
			<coordinates>-65.72666667,-26.61583333,4740</coordinates>
		</Point>
</Placemark>
<Placemark>
    <styleUrl>#icon0</styleUrl>
    <name>/Argun North/</name>
		<description><![CDATA[World's Ultras<BR><BR><B>NAME</B> = /Argun North/<BR><B>ELEVATION</B> = 3405<BR><B>PROMINENCE</B> = 1610<BR><B>ID</B> = AF066<BR><B>ALT_NAME</B> = <BR><B>COMMENT</B> = Unofficial Name<BR><B>COUNTRY</B> = Ethiopia<BR><B>AUTHORS</B> = http://www.PEAKLIST.org]]></description>
		<Point>
			<coordinates>36.72583333,6.55,3405</coordinates>
		</Point>
</Placemark>
<Placemark>
    <styleUrl>#icon0</styleUrl>
    <name>Kuh-e Takht</name>
		<description><![CDATA[World's Ultras<BR><BR><B>NAME</B> = Kuh-e Takht<BR><B>ELEVATION</B> = 2975<BR><B>PROMINENCE</B> = 1675<BR><B>ID</B> = AS542<BR><B>ALT_NAME</B> = <BR><B>COMMENT</B> = <BR><B>COUNTRY</B> = Iran<BR><B>AUTHORS</B> = http://www.PEAKLIST.org]]></description>
		<Point>
			<coordinates>46.22,35.2375,2975</coordinates>
		</Point>
</Placemark>
<Placemark>
    <styleUrl>#icon0</styleUrl>
    <name>Khan Tangiri Shyngy</name>
		<description><![CDATA[World's Ultras<BR><BR><B>NAME</B> = Khan Tangiri Shyngy<BR><B>ELEVATION</B> = 7010<BR><B>PROMINENCE</B> = 1705<BR><B>ID</B> = AS268<BR><B>ALT_NAME</B> = Khan Tengri<BR><B>COMMENT</B> = HP of Kazakhstan.<BR><B>COUNTRY</B> = Kazakhstan, Kyrgyzstan<BR><B>AUTHORS</B> = http://www.PEAKLIST.org]]></description>
		<Point>
			<coordinates>80.17583333,42.21,7010</coordinates>
		</Point>
</Placemark>
<Placemark>
    <styleUrl>#icon0</styleUrl>
    <name>Cord. Vilcababna Norte HP</name>
		<description><![CDATA[World's Ultras<BR><BR><B>NAME</B> = Cord. Vilcababna Norte HP<BR><B>ELEVATION</B> = 4150<BR><B>PROMINENCE</B> = 2070<BR><B>ID</B> = SA052<BR><B>ALT_NAME</B> = <BR><B>COMMENT</B> = <BR><B>COUNTRY</B> = Peru<BR><B>AUTHORS</B> = http://www.PEAKLIST.org]]></description>
		<Point>
			<coordinates>-73.61750000000001,-12.37583333,4150</coordinates>
		</Point>
</Placemark>
<Placemark>
    <styleUrl>#icon0</styleUrl>
    <name>Cerro Carabaya</name>
		<description><![CDATA[World's Ultras<BR><BR><B>NAME</B> = Cerro Carabaya<BR><B>ELEVATION</B> = 5869<BR><B>PROMINENCE</B> = 1589<BR><B>ID</B> = SA161<BR><B>ALT_NAME</B> = Cibaray<BR><B>COMMENT</B> = <BR><B>COUNTRY</B> = Bolivia<BR><B>AUTHORS</B> = http://www.PEAKLIST.org]]></description>
		<Point>
			<coordinates>-68.69833333,-19.14583333,5869</coordinates>
		</Point>
</Placemark>
<Placemark>
    <styleUrl>#icon0</styleUrl>
    <name>Popomanaseu</name>
		<description><![CDATA[World's Ultras<BR><BR><B>NAME</B> = Popomanaseu<BR><B>ELEVATION</B> = 2335<BR><B>PROMINENCE</B> = 2335<BR><B>ID</B> = OC004<BR><B>ALT_NAME</B> = <BR><B>COMMENT</B> = HP of Solomon Islands, on Guadalcanal<BR><B>COUNTRY</B> = Solomons<BR><B>AUTHORS</B> = http://www.PEAKLIST.org]]></description>
		<Point>
			<coordinates>160.06194444,-9.703611110000001,2335</coordinates>
		</Point>
</Placemark>
<Placemark>
    <styleUrl>#icon0</styleUrl>
    <name>Hoher Dachstein</name>
		<description><![CDATA[World's Ultras<BR><BR><B>NAME</B> = Hoher Dachstein<BR><B>ELEVATION</B> = 2995<BR><B>PROMINENCE</B> = 2136<BR><B>ID</B> = EU020<BR><B>ALT_NAME</B> = <BR><B>COMMENT</B> = <BR><B>COUNTRY</B> = Austria<BR><B>AUTHORS</B> = http://www.PEAKLIST.org]]></description>
		<Point>
			<coordinates>13.60638889,47.47527778,2995</coordinates>
		</Point>
</Placemark>
<Placemark>
    <styleUrl>#icon0</styleUrl>
    <name>Cerro Cerbatana</name>
		<description><![CDATA[World's Ultras<BR><BR><B>NAME</B> = Cerro Cerbatana<BR><B>ELEVATION</B> = 2080<BR><B>PROMINENCE</B> = 1708<BR><B>ID</B> = SA127<BR><B>ALT_NAME</B> = <BR><B>COMMENT</B> = <BR><B>COUNTRY</B> = Venezuela<BR><B>AUTHORS</B> = http://www.PEAKLIST.org]]></description>
		<Point>
			<coordinates>-66.2375,6.659999999999999,2080</coordinates>
		</Point>
</Placemark>
<Placemark>
    <styleUrl>#icon0</styleUrl>
    <name>Moncong Lompobatang</name>
		<description><![CDATA[World's Ultras<BR><BR><B>NAME</B> = Moncong Lompobatang<BR><B>ELEVATION</B> = 2874<BR><B>PROMINENCE</B> = 2857<BR><B>ID</B> = AS052<BR><B>ALT_NAME</B> = <BR><B>COMMENT</B> = <BR><B>COUNTRY</B> = Indonesia<BR><B>AUTHORS</B> = http://www.PEAKLIST.org]]></description>
		<Point>
			<coordinates>119.93166667,-5.34666667,2874</coordinates>
		</Point>
</Placemark>
<Placemark>
    <styleUrl>#icon0</styleUrl>
    <name>Oros Ossa</name>
		<description><![CDATA[World's Ultras<BR><BR><B>NAME</B> = Oros Ossa<BR><B>ELEVATION</B> = 1978<BR><B>PROMINENCE</B> = 1854<BR><B>ID</B> = EU039<BR><B>ALT_NAME</B> = <BR><B>COMMENT</B> = <BR><B>COUNTRY</B> = Greece<BR><B>AUTHORS</B> = http://www.PEAKLIST.org]]></description>
		<Point>
			<coordinates>22.68694444,39.79694444,1978</coordinates>
		</Point>
</Placemark>
<Placemark>
    <styleUrl>#icon0</styleUrl>
    <name>Tianzhu Shan</name>
		<description><![CDATA[World's Ultras<BR><BR><B>NAME</B> = Tianzhu Shan<BR><B>ELEVATION</B> = 1760<BR><B>PROMINENCE</B> = 1642<BR><B>ID</B> = AS449<BR><B>ALT_NAME</B> = <BR><B>COMMENT</B> = <BR><B>COUNTRY</B> = China<BR><B>AUTHORS</B> = http://www.PEAKLIST.org]]></description>
		<Point>
			<coordinates>116.1875,31.06166667,1760</coordinates>
		</Point>
</Placemark>
<Placemark>
    <styleUrl>#icon0</styleUrl>
    <name>Pegunungan Cycloop</name>
		<description><![CDATA[World's Ultras<BR><BR><B>NAME</B> = Pegunungan Cycloop<BR><B>ELEVATION</B> = 2000<BR><B>PROMINENCE</B> = 1876<BR><B>ID</B> = AS274<BR><B>ALT_NAME</B> = <BR><B>COMMENT</B> = <BR><B>COUNTRY</B> = Indonesia<BR><B>AUTHORS</B> = http://www.PEAKLIST.org]]></description>
		<Point>
			<coordinates>140.525,-2.50666667,2000</coordinates>
		</Point>
</Placemark>
<Placemark>
    <styleUrl>#icon0</styleUrl>
    <name>Wugong Shan</name>
		<description><![CDATA[World's Ultras<BR><BR><B>NAME</B> = Wugong Shan<BR><B>ELEVATION</B> = 1920<BR><B>PROMINENCE</B> = 1722<BR><B>ID</B> = AS368<BR><B>ALT_NAME</B> = <BR><B>COMMENT</B> = <BR><B>COUNTRY</B> = China<BR><B>AUTHORS</B> = http://www.PEAKLIST.org]]></description>
		<Point>
			<coordinates>114.17333333,27.455,1920</coordinates>
		</Point>
</Placemark>
<Placemark>
    <styleUrl>#icon0</styleUrl>
    <name>Palup Qaqa</name>
		<description><![CDATA[World's Ultras<BR><BR><B>NAME</B> = Palup Qaqa<BR><B>ELEVATION</B> = 2105<BR><B>PROMINENCE</B> = 2105<BR><B>ID</B> = GN004<BR><B>ALT_NAME</B> = <BR><B>COMMENT</B> = HP of Upernivik Island<BR><B>COUNTRY</B> = Greenland<BR><B>AUTHORS</B> = http://www.PEAKLIST.org]]></description>
		<Point>
			<coordinates>-52.81666667,71.33333333,2105</coordinates>
		</Point>
</Placemark>
<Placemark>
    <styleUrl>#icon0</styleUrl>
    <name>Gora Alney</name>
		<description><![CDATA[World's Ultras<BR><BR><B>NAME</B> = Gora Alney<BR><B>ELEVATION</B> = 2598<BR><B>PROMINENCE</B> = 1825<BR><B>ID</B> = AN028<BR><B>ALT_NAME</B> = <BR><B>COMMENT</B> = <BR><B>COUNTRY</B> = Russia<BR><B>AUTHORS</B> = http://www.PEAKLIST.org]]></description>
		<Point>
			<coordinates>159.645,56.6925,2598</coordinates>
		</Point>
</Placemark>
<Placemark>
    <styleUrl>#icon0</styleUrl>
    <name>Bu/gyai Kangri</name>
		<description><![CDATA[World's Ultras<BR><BR><B>NAME</B> = Bu/gyai Kangri<BR><B>ELEVATION</B> = 6328<BR><B>PROMINENCE</B> = 1666<BR><B>ID</B> = AS476<BR><B>ALT_NAME</B> = <BR><B>COMMENT</B> = <BR><B>COUNTRY</B> = China<BR><B>AUTHORS</B> = http://www.PEAKLIST.org]]></description>
		<Point>
			<coordinates>94.69999999999999,31.815,6327.999999999999</coordinates>
		</Point>
</Placemark>
<Placemark>
    <styleUrl>#icon0</styleUrl>
    <name>Mt. Marcus Baker</name>
		<description><![CDATA[World's Ultras<BR><BR><B>NAME</B> = Mt. Marcus Baker<BR><B>ELEVATION</B> = 4016<BR><B>PROMINENCE</B> = 3277<BR><B>ID</B> = AK006<BR><B>ALT_NAME</B> = <BR><B>COMMENT</B> = <BR><B>COUNTRY</B> = USA<BR><B>AUTHORS</B> = http://www.PEAKLIST.org]]></description>
		<Point>
			<coordinates>-147.75277778,61.43722222,4016</coordinates>
		</Point>
</Placemark>
<Placemark>
    <styleUrl>#icon0</styleUrl>
    <name>Snehaetten</name>
		<description><![CDATA[World's Ultras<BR><BR><B>NAME</B> = Snehaetten<BR><B>ELEVATION</B> = 1765<BR><B>PROMINENCE</B> = 1765<BR><B>ID</B> = GN015<BR><B>ALT_NAME</B> = Qeqertarsuaq/Disko<BR><B>COMMENT</B> = <BR><B>COUNTRY</B> = Greenland<BR><B>AUTHORS</B> = http://www.PEAKLIST.org]]></description>
		<Point>
			<coordinates>-53.16666667,71.56666667,1765</coordinates>
		</Point>
</Placemark>
<Placemark>
    <styleUrl>#icon0</styleUrl>
    <name>Cerro Tenerife</name>
		<description><![CDATA[World's Ultras<BR><BR><B>NAME</B> = Cerro Tenerife<BR><B>ELEVATION</B> = 1590<BR><B>PROMINENCE</B> = 1539<BR><B>ID</B> = SA198<BR><B>ALT_NAME</B> = <BR><B>COMMENT</B> = <BR><B>COUNTRY</B> = Chile<BR><B>AUTHORS</B> = http://www.PEAKLIST.org]]></description>
		<Point>
			<coordinates>-72.84916667,-51.37916667,1590</coordinates>
		</Point>
</Placemark>
<Placemark>
    <styleUrl>#icon0</styleUrl>
    <name>Gya</name>
		<description><![CDATA[World's Ultras<BR><BR><B>NAME</B> = Gya<BR><B>ELEVATION</B> = 6794<BR><B>PROMINENCE</B> = 1910<BR><B>ID</B> = AS251<BR><B>ALT_NAME</B> = <BR><B>COMMENT</B> = <BR><B>COUNTRY</B> = China, India<BR><B>AUTHORS</B> = http://www.PEAKLIST.org]]></description>
		<Point>
			<coordinates>78.40000000000001,32.52583333,6794</coordinates>
		</Point>
</Placemark>
<Placemark>
    <styleUrl>#icon0</styleUrl>
    <name>Zugspitze</name>
		<description><![CDATA[World's Ultras<BR><BR><B>NAME</B> = Zugspitze<BR><B>ELEVATION</B> = 2962<BR><B>PROMINENCE</B> = 1746<BR><B>ID</B> = EU051<BR><B>ALT_NAME</B> = <BR><B>COMMENT</B> = HP of Germany.<BR><B>COUNTRY</B> = Austria, Germany<BR><B>AUTHORS</B> = http://www.PEAKLIST.org]]></description>
		<Point>
			<coordinates>10.98527778,47.42111110999999,2962</coordinates>
		</Point>
</Placemark>
<Placemark>
    <styleUrl>#icon0</styleUrl>
    <name>Cuchilla San Lorenzo</name>
		<description><![CDATA[World's Ultras<BR><BR><B>NAME</B> = Cuchilla San Lorenzo<BR><B>ELEVATION</B> = 2866<BR><B>PROMINENCE</B> = 1522<BR><B>ID</B> = SA196<BR><B>ALT_NAME</B> = <BR><B>COMMENT</B> = <BR><B>COUNTRY</B> = Colombia<BR><B>AUTHORS</B> = http://www.PEAKLIST.org]]></description>
		<Point>
			<coordinates>-74.03333333,11.11666667,2866</coordinates>
		</Point>
</Placemark>
<Placemark>
    <styleUrl>#icon0</styleUrl>
    <name>Cerro Tristeza</name>
		<description><![CDATA[World's Ultras<BR><BR><B>NAME</B> = Cerro Tristeza<BR><B>ELEVATION</B> = 2596<BR><B>PROMINENCE</B> = 2456<BR><B>ID</B> = SA027<BR><B>ALT_NAME</B> = W of Turumiquire<BR><B>COMMENT</B> = <BR><B>COUNTRY</B> = Venezuela<BR><B>AUTHORS</B> = http://www.PEAKLIST.org]]></description>
		<Point>
			<coordinates>-63.95833333,10.08416667,2596</coordinates>
		</Point>
</Placemark>
<Placemark>
    <styleUrl>#icon0</styleUrl>
    <name>Laotzyunshan</name>
		<description><![CDATA[World's Ultras<BR><BR><B>NAME</B> = Laotzyunshan<BR><B>ELEVATION</B> = 4500<BR><B>PROMINENCE</B> = 1557<BR><B>ID</B> = AS567<BR><B>ALT_NAME</B> = <BR><B>COMMENT</B> = (cyrillic transliteration)<BR><B>COUNTRY</B> = China<BR><B>AUTHORS</B> = http://www.PEAKLIST.org]]></description>
		<Point>
			<coordinates>99.61083333000002,26.88333333,4500</coordinates>
		</Point>
</Placemark>
<Placemark>
    <styleUrl>#icon0</styleUrl>
    <name>Pointe d/Arcalod</name>
		<description><![CDATA[World's Ultras<BR><BR><B>NAME</B> = Pointe d/Arcalod<BR><B>ELEVATION</B> = 2217<BR><B>PROMINENCE</B> = 1719<BR><B>ID</B> = EU056<BR><B>ALT_NAME</B> = <BR><B>COMMENT</B> = <BR><B>COUNTRY</B> = France<BR><B>AUTHORS</B> = http://www.PEAKLIST.org]]></description>
		<Point>
			<coordinates>6.228333330000001,45.68166667,2217</coordinates>
		</Point>
</Placemark>
<Placemark>
    <styleUrl>#icon0</styleUrl>
    <name>Cerro Barros Arana</name>
		<description><![CDATA[World's Ultras<BR><BR><B>NAME</B> = Cerro Barros Arana<BR><B>ELEVATION</B> = 2286<BR><B>PROMINENCE</B> = 1645<BR><B>ID</B> = SA146<BR><B>ALT_NAME</B> = <BR><B>COMMENT</B> = <BR><B>COUNTRY</B> = Chile<BR><B>AUTHORS</B> = http://www.PEAKLIST.org]]></description>
		<Point>
			<coordinates>-72.185,-43.88833333,2286</coordinates>
		</Point>
</Placemark>
<Placemark>
    <styleUrl>#icon0</styleUrl>
    <name>Cerro Risco Plateado</name>
		<description><![CDATA[World's Ultras<BR><BR><B>NAME</B> = Cerro Risco Plateado<BR><B>ELEVATION</B> = 4999<BR><B>PROMINENCE</B> = 1602<BR><B>ID</B> = SA155<BR><B>ALT_NAME</B> = <BR><B>COMMENT</B> = <BR><B>COUNTRY</B> = Argentina<BR><B>AUTHORS</B> = http://www.PEAKLIST.org]]></description>
		<Point>
			<coordinates>-69.99416667,-34.91833333,4999</coordinates>
		</Point>
</Placemark>
<Placemark>
    <styleUrl>#icon0</styleUrl>
    <name>Sacajawea Peak</name>
		<description><![CDATA[World's Ultras<BR><BR><B>NAME</B> = Sacajawea Peak<BR><B>ELEVATION</B> = 2999<BR><B>PROMINENCE</B> = 1949<BR><B>ID</B> = US018<BR><B>ALT_NAME</B> = <BR><B>COMMENT</B> = <BR><B>COUNTRY</B> = USA<BR><B>AUTHORS</B> = http://www.PEAKLIST.org]]></description>
		<Point>
			<coordinates>-117.29277778,45.245,2999</coordinates>
		</Point>
</Placemark>
<Placemark>
    <styleUrl>#icon0</styleUrl>
    <name>Kinaussak</name>
		<description><![CDATA[World's Ultras<BR><BR><B>NAME</B> = Kinaussak<BR><B>ELEVATION</B> = 1630<BR><B>PROMINENCE</B> = 1555<BR><B>ID</B> = GN034<BR><B>ALT_NAME</B> = <BR><B>COMMENT</B> = <BR><B>COUNTRY</B> = Greenland<BR><B>AUTHORS</B> = http://www.PEAKLIST.org]]></description>
		<Point>
			<coordinates>-50.51666667,64.45,1630</coordinates>
		</Point>
</Placemark>
<Placemark>
    <styleUrl>#icon0</styleUrl>
    <name>Mt. Stephenson</name>
		<description><![CDATA[World's Ultras<BR><BR><B>NAME</B> = Mt. Stephenson<BR><B>ELEVATION</B> = 2987<BR><B>PROMINENCE</B> = 2987<BR><B>ID</B> = AN007<BR><B>ALT_NAME</B> = <BR><B>COMMENT</B> = HP of Alexander Island<BR><B>COUNTRY</B> = Antarctica<BR><B>AUTHORS</B> = http://www.PEAKLIST.org]]></description>
		<Point>
			<coordinates>-69.71666667,-69.81666667,2987</coordinates>
		</Point>
</Placemark>
<Placemark>
    <styleUrl>#icon0</styleUrl>
    <name>P. 5980</name>
		<description><![CDATA[World's Ultras<BR><BR><B>NAME</B> = P. 5980<BR><B>ELEVATION</B> = 5980<BR><B>PROMINENCE</B> = 1747<BR><B>ID</B> = AS342<BR><B>ALT_NAME</B> = <BR><B>COMMENT</B> = Unknown Name<BR><B>COUNTRY</B> = China, India<BR><B>AUTHORS</B> = http://www.PEAKLIST.org]]></description>
		<Point>
			<coordinates>94.74916666999999,29.3225,5980</coordinates>
		</Point>
</Placemark>
<Placemark>
    <styleUrl>#icon0</styleUrl>
    <name>Mt. Whitney</name>
		<description><![CDATA[World's Ultras<BR><BR><B>NAME</B> = Mt. Whitney<BR><B>ELEVATION</B> = 4418<BR><B>PROMINENCE</B> = 3072<BR><B>ID</B> = US002<BR><B>ALT_NAME</B> = <BR><B>COMMENT</B> = <BR><B>COUNTRY</B> = USA<BR><B>AUTHORS</B> = http://www.PEAKLIST.org]]></description>
		<Point>
			<coordinates>-118.29666667,36.57833333,4418</coordinates>
		</Point>
</Placemark>
<Placemark>
    <styleUrl>#icon0</styleUrl>
    <name>Grintovec</name>
		<description><![CDATA[World's Ultras<BR><BR><B>NAME</B> = Grintovec<BR><B>ELEVATION</B> = 2558<BR><B>PROMINENCE</B> = 1706<BR><B>ID</B> = EU059<BR><B>ALT_NAME</B> = <BR><B>COMMENT</B> = <BR><B>COUNTRY</B> = Slovenia<BR><B>AUTHORS</B> = http://www.PEAKLIST.org]]></description>
		<Point>
			<coordinates>14.53611111,46.35694444,2558</coordinates>
		</Point>
</Placemark>
<Placemark>
    <styleUrl>#icon0</styleUrl>
    <name>Birkkarspitze</name>
		<description><![CDATA[World's Ultras<BR><BR><B>NAME</B> = Birkkarspitze<BR><B>ELEVATION</B> = 2749<BR><B>PROMINENCE</B> = 1567<BR><B>ID</B> = EU082<BR><B>ALT_NAME</B> = <BR><B>COMMENT</B> = <BR><B>COUNTRY</B> = Austria<BR><B>AUTHORS</B> = http://www.PEAKLIST.org]]></description>
		<Point>
			<coordinates>11.43777778,47.41111111,2749</coordinates>
		</Point>
</Placemark>
<Placemark>
    <styleUrl>#icon0</styleUrl>
    <name>Mt. Wilhelm</name>
		<description><![CDATA[World's Ultras<BR><BR><B>NAME</B> = Mt. Wilhelm<BR><B>ELEVATION</B> = 4509<BR><B>PROMINENCE</B> = 2969<BR><B>ID</B> = PN003<BR><B>ALT_NAME</B> = <BR><B>COMMENT</B> = HP of Papua New Guinea.<BR><B>COUNTRY</B> = Papua New Guinea<BR><B>AUTHORS</B> = http://www.PEAKLIST.org]]></description>
		<Point>
			<coordinates>145.02916667,-5.78,4509</coordinates>
		</Point>
</Placemark>
<Placemark>
    <styleUrl>#icon0</styleUrl>
    <name>Haramosh</name>
		<description><![CDATA[World's Ultras<BR><BR><B>NAME</B> = Haramosh<BR><B>ELEVATION</B> = 7406<BR><B>PROMINENCE</B> = 2286<BR><B>ID</B> = AS132<BR><B>ALT_NAME</B> = <BR><B>COMMENT</B> = <BR><B>COUNTRY</B> = Pakistan<BR><B>AUTHORS</B> = http://www.PEAKLIST.org]]></description>
		<Point>
			<coordinates>74.89749999999999,35.84,7405.999999999999</coordinates>
		</Point>
</Placemark>
<Placemark>
    <styleUrl>#icon0</styleUrl>
    <name>Chepunyal Hills</name>
		<description><![CDATA[World's Ultras<BR><BR><B>NAME</B> = Chepunyal Hills<BR><B>ELEVATION</B> = 3334<BR><B>PROMINENCE</B> = 1759<BR><B>ID</B> = AF045<BR><B>ALT_NAME</B> = <BR><B>COMMENT</B> = <BR><B>COUNTRY</B> = Kenya<BR><B>AUTHORS</B> = http://www.PEAKLIST.org]]></description>
		<Point>
			<coordinates>35.3825,1.65916667,3334</coordinates>
		</Point>
</Placemark>
<Placemark>
    <styleUrl>#icon0</styleUrl>
    <name>P. 5608</name>
		<description><![CDATA[World's Ultras<BR><BR><B>NAME</B> = P. 5608<BR><B>ELEVATION</B> = 5608<BR><B>PROMINENCE</B> = 1851<BR><B>ID</B> = AS282<BR><B>ALT_NAME</B> = <BR><B>COMMENT</B> = Unknown Name<BR><B>COUNTRY</B> = India, Pakistan<BR><B>AUTHORS</B> = http://www.PEAKLIST.org]]></description>
		<Point>
			<coordinates>75.83666667,34.555,5608</coordinates>
		</Point>
</Placemark>
<Placemark>
    <styleUrl>#icon0</styleUrl>
    <name>Kogantag</name>
		<description><![CDATA[World's Ultras<BR><BR><B>NAME</B> = Kogantag<BR><B>ELEVATION</B> = 4800<BR><B>PROMINENCE</B> = 1609<BR><B>ID</B> = AS486<BR><B>ALT_NAME</B> = <BR><B>COMMENT</B> = (cyrillic transliteration)<BR><B>COUNTRY</B> = China<BR><B>AUTHORS</B> = http://www.PEAKLIST.org]]></description>
		<Point>
			<coordinates>90.64,38.63166667,4800</coordinates>
		</Point>
</Placemark>
<Placemark>
    <styleUrl>#icon0</styleUrl>
    <name>Sovereign Mtn.</name>
		<description><![CDATA[World's Ultras<BR><BR><B>NAME</B> = Sovereign Mtn.<BR><B>ELEVATION</B> = 2697<BR><B>PROMINENCE</B> = 1790<BR><B>ID</B> = AK040<BR><B>ALT_NAME</B> = <BR><B>COMMENT</B> = <BR><B>COUNTRY</B> = USA<BR><B>AUTHORS</B> = http://www.PEAKLIST.org]]></description>
		<Point>
			<coordinates>-148.60444444,62.13111111,2697</coordinates>
		</Point>
</Placemark>
<Placemark>
    <styleUrl>#icon0</styleUrl>
    <name>Pk. 09-29</name>
		<description><![CDATA[World's Ultras<BR><BR><B>NAME</B> = Pk. 09-29<BR><B>ELEVATION</B> = 1840<BR><B>PROMINENCE</B> = 1617<BR><B>ID</B> = CN931<BR><B>ALT_NAME</B> = <BR><B>COMMENT</B> = Unnamed<BR><B>COUNTRY</B> = Canada<BR><B>AUTHORS</B> = http://www.PEAKLIST.org]]></description>
		<Point>
			<coordinates>-63.49249999999999,66.15166667,1840</coordinates>
		</Point>
</Placemark>
<Placemark>
    <styleUrl>#icon0</styleUrl>
    <name>Tsaydaychuz Peak</name>
		<description><![CDATA[World's Ultras<BR><BR><B>NAME</B> = Tsaydaychuz Peak<BR><B>ELEVATION</B> = 2758<BR><B>PROMINENCE</B> = 1826<BR><B>ID</B> = CN058<BR><B>ALT_NAME</B> = <BR><B>COMMENT</B> = <BR><B>COUNTRY</B> = Canada<BR><B>AUTHORS</B> = http://www.PEAKLIST.org]]></description>
		<Point>
			<coordinates>-126.64,53.02166667,2758</coordinates>
		</Point>
</Placemark>
<Placemark>
    <styleUrl>#icon0</styleUrl>
    <name>Momskiy Khrebet HP</name>
		<description><![CDATA[World's Ultras<BR><BR><B>NAME</B> = Momskiy Khrebet HP<BR><B>ELEVATION</B> = 2480<BR><B>PROMINENCE</B> = 1760<BR><B>ID</B> = SI006<BR><B>ALT_NAME</B> = <BR><B>COMMENT</B> = <BR><B>COUNTRY</B> = Russia<BR><B>AUTHORS</B> = http://www.PEAKLIST.org]]></description>
		<Point>
			<coordinates>144.77638889,66.59361111,2480</coordinates>
		</Point>
</Placemark>
<Placemark>
    <styleUrl>#icon0</styleUrl>
    <name>P. 1857</name>
		<description><![CDATA[World's Ultras<BR><BR><B>NAME</B> = P. 1857<BR><B>ELEVATION</B> = 1857<BR><B>PROMINENCE</B> = 1574<BR><B>ID</B> = AS551<BR><B>ALT_NAME</B> = <BR><B>COMMENT</B> = Unknown Name<BR><B>COUNTRY</B> = China<BR><B>AUTHORS</B> = http://www.PEAKLIST.org]]></description>
		<Point>
			<coordinates>111.16666667,24.89249999999999,1857</coordinates>
		</Point>
</Placemark>
<Placemark>
    <styleUrl>#icon0</styleUrl>
    <name>Riyue Shan HP</name>
		<description><![CDATA[World's Ultras<BR><BR><B>NAME</B> = Riyue Shan HP<BR><B>ELEVATION</B> = 4890<BR><B>PROMINENCE</B> = 1550<BR><B>ID</B> = AS582<BR><B>ALT_NAME</B> = Nan Shan<BR><B>COMMENT</B> = <BR><B>COUNTRY</B> = China<BR><B>AUTHORS</B> = http://www.PEAKLIST.org]]></description>
		<Point>
			<coordinates>101.20083333,36.3375,4890</coordinates>
		</Point>
</Placemark>
<Placemark>
    <styleUrl>#icon0</styleUrl>
    <name>Daming Shan</name>
		<description><![CDATA[World's Ultras<BR><BR><B>NAME</B> = Daming Shan<BR><B>ELEVATION</B> = 1785<BR><B>PROMINENCE</B> = 1570<BR><B>ID</B> = AS552<BR><B>ALT_NAME</B> = <BR><B>COMMENT</B> = <BR><B>COUNTRY</B> = China<BR><B>AUTHORS</B> = http://www.PEAKLIST.org]]></description>
		<Point>
			<coordinates>108.50333333,23.38583333,1785</coordinates>
		</Point>
</Placemark>
<Placemark>
    <styleUrl>#icon0</styleUrl>
    <name>Munku Sardyk</name>
		<description><![CDATA[World's Ultras<BR><BR><B>NAME</B> = Munku Sardyk<BR><B>ELEVATION</B> = 3491<BR><B>PROMINENCE</B> = 1578<BR><B>ID</B> = AN058<BR><B>ALT_NAME</B> = <BR><B>COMMENT</B> = <BR><B>COUNTRY</B> = Mongolia, Russia<BR><B>AUTHORS</B> = http://www.PEAKLIST.org]]></description>
		<Point>
			<coordinates>100.5975,51.71916667000001,3491</coordinates>
		</Point>
</Placemark>
<Placemark>
    <styleUrl>#icon0</styleUrl>
    <name>Pakhain Range HP</name>
		<description><![CDATA[World's Ultras<BR><BR><B>NAME</B> = Pakhain Range HP<BR><B>ELEVATION</B> = 2780<BR><B>PROMINENCE</B> = 1589<BR><B>ID</B> = AS515<BR><B>ALT_NAME</B> = <BR><B>COMMENT</B> = <BR><B>COUNTRY</B> = Burma, India<BR><B>AUTHORS</B> = http://www.PEAKLIST.org]]></description>
		<Point>
			<coordinates>95.52333333,26.81583333,2780</coordinates>
		</Point>
</Placemark>
<Placemark>
    <styleUrl>#icon0</styleUrl>
    <name>Baxoila Ling</name>
		<description><![CDATA[World's Ultras<BR><BR><B>NAME</B> = Baxoila Ling<BR><B>ELEVATION</B> = 6146<BR><B>PROMINENCE</B> = 1720<BR><B>ID</B> = AS281<BR><B>ALT_NAME</B> = <BR><B>COMMENT</B> = Unofficial Name<BR><B>COUNTRY</B> = China<BR><B>AUTHORS</B> = http://www.PEAKLIST.org]]></description>
		<Point>
			<coordinates>98.06083332999999,28.82416667,6146</coordinates>
		</Point>
</Placemark>
<Placemark>
    <styleUrl>#icon0</styleUrl>
    <name>Lian Hua Feng</name>
		<description><![CDATA[World's Ultras<BR><BR><B>NAME</B> = Lian Hua Feng<BR><B>ELEVATION</B> = 1864<BR><B>PROMINENCE</B> = 1734<BR><B>ID</B> = AS327<BR><B>ALT_NAME</B> = Lotus Peak, HP Huang Shan<BR><B>COMMENT</B> = <BR><B>COUNTRY</B> = China<BR><B>AUTHORS</B> = http://www.PEAKLIST.org]]></description>
		<Point>
			<coordinates>118.16416667,30.13416667,1864</coordinates>
		</Point>
</Placemark>
<Placemark>
    <styleUrl>#icon0</styleUrl>
    <name>Mt. Goodsir, South Tower</name>
		<description><![CDATA[World's Ultras<BR><BR><B>NAME</B> = Mt. Goodsir, South Tower<BR><B>ELEVATION</B> = 3567<BR><B>PROMINENCE</B> = 1887<BR><B>ID</B> = CN050<BR><B>ALT_NAME</B> = <BR><B>COMMENT</B> = <BR><B>COUNTRY</B> = Canada<BR><B>AUTHORS</B> = http://www.PEAKLIST.org]]></description>
		<Point>
			<coordinates>-116.39666667,51.20166667,3567</coordinates>
		</Point>
</Placemark>
<Placemark>
    <styleUrl>#icon0</styleUrl>
    <name>Dund Sayhni Nuru</name>
		<description><![CDATA[World's Ultras<BR><BR><B>NAME</B> = Dund Sayhni Nuru<BR><B>ELEVATION</B> = 2825<BR><B>PROMINENCE</B> = 1526<BR><B>ID</B> = AS601<BR><B>ALT_NAME</B> = <BR><B>COMMENT</B> = (cyrillic transliteration)<BR><B>COUNTRY</B> = Mongolia<BR><B>AUTHORS</B> = http://www.PEAKLIST.org]]></description>
		<Point>
			<coordinates>103.77083333,43.63583333,2825</coordinates>
		</Point>
</Placemark>
<Placemark>
    <styleUrl>#icon0</styleUrl>
    <name>Minya Konka</name>
		<description><![CDATA[World's Ultras<BR><BR><B>NAME</B> = Minya Konka<BR><B>ELEVATION</B> = 7556<BR><B>PROMINENCE</B> = 3642<BR><B>ID</B> = AS019<BR><B>ALT_NAME</B> = Gongga Shan<BR><B>COMMENT</B> = <BR><B>COUNTRY</B> = China<BR><B>AUTHORS</B> = http://www.PEAKLIST.org]]></description>
		<Point>
			<coordinates>101.87666667,29.595,7556</coordinates>
		</Point>
</Placemark>
<Placemark>
    <styleUrl>#icon0</styleUrl>
    <name>Montaña Peña Blanca</name>
		<description><![CDATA[World's Ultras<BR><BR><B>NAME</B> = Montaña Peña Blanca<BR><B>ELEVATION</B> = 3518<BR><B>PROMINENCE</B> = 1868<BR><B>ID</B> = MA015<BR><B>ALT_NAME</B> = <BR><B>COMMENT</B> = <BR><B>COUNTRY</B> = Guatemala<BR><B>AUTHORS</B> = http://www.PEAKLIST.org]]></description>
		<Point>
			<coordinates>-91.91583333,15.5,3518</coordinates>
		</Point>
</Placemark>
<Placemark>
    <styleUrl>#icon0</styleUrl>
    <name>Mamostong Kangri</name>
		<description><![CDATA[World's Ultras<BR><BR><B>NAME</B> = Mamostong Kangri<BR><B>ELEVATION</B> = 7516<BR><B>PROMINENCE</B> = 1803<BR><B>ID</B> = AS300<BR><B>ALT_NAME</B> = <BR><B>COMMENT</B> = <BR><B>COUNTRY</B> = India<BR><B>AUTHORS</B> = http://www.PEAKLIST.org]]></description>
		<Point>
			<coordinates>77.5775,35.14083333,7516</coordinates>
		</Point>
</Placemark>
<Placemark>
    <styleUrl>#icon0</styleUrl>
    <name>Gora Imeni Fuchika</name>
		<description><![CDATA[World's Ultras<BR><BR><B>NAME</B> = Gora Imeni Fuchika<BR><B>ELEVATION</B> = 4573<BR><B>PROMINENCE</B> = 1704<BR><B>ID</B> = AS382<BR><B>ALT_NAME</B> = <BR><B>COMMENT</B> = <BR><B>COUNTRY</B> = Tajikstan<BR><B>AUTHORS</B> = http://www.PEAKLIST.org]]></description>
		<Point>
			<coordinates>70.34,38.12583333,4573</coordinates>
		</Point>
</Placemark>
<Placemark>
    <styleUrl>#icon0</styleUrl>
    <name>Mt. Cronin</name>
		<description><![CDATA[World's Ultras<BR><BR><B>NAME</B> = Mt. Cronin<BR><B>ELEVATION</B> = 2396<BR><B>PROMINENCE</B> = 1571<BR><B>ID</B> = CN113<BR><B>ALT_NAME</B> = <BR><B>COMMENT</B> = <BR><B>COUNTRY</B> = Canada<BR><B>AUTHORS</B> = http://www.PEAKLIST.org]]></description>
		<Point>
			<coordinates>-126.86388889,54.92999999999999,2396</coordinates>
		</Point>
</Placemark>
<Placemark>
    <styleUrl>#icon0</styleUrl>
    <name>Mt. Sylvia</name>
		<description><![CDATA[World's Ultras<BR><BR><B>NAME</B> = Mt. Sylvia<BR><B>ELEVATION</B> = 2940<BR><B>PROMINENCE</B> = 1559<BR><B>ID</B> = CN117<BR><B>ALT_NAME</B> = <BR><B>COMMENT</B> = <BR><B>COUNTRY</B> = Canada<BR><B>AUTHORS</B> = http://www.PEAKLIST.org]]></description>
		<Point>
			<coordinates>-124.46888889,58.08194444,2940</coordinates>
		</Point>
</Placemark>
<Placemark>
    <styleUrl>#icon0</styleUrl>
    <name>Berzelius Bjerg</name>
		<description><![CDATA[World's Ultras<BR><BR><B>NAME</B> = Berzelius Bjerg<BR><B>ELEVATION</B> = 1810<BR><B>PROMINENCE</B> = 1535<BR><B>ID</B> = GN039<BR><B>ALT_NAME</B> = <BR><B>COMMENT</B> = <BR><B>COUNTRY</B> = Greenland<BR><B>AUTHORS</B> = http://www.PEAKLIST.org]]></description>
		<Point>
			<coordinates>-25.06666667,72.46666667,1810</coordinates>
		</Point>
</Placemark>
<Placemark>
    <styleUrl>#icon0</styleUrl>
    <name>Yusupu Aleketag Shan</name>
		<description><![CDATA[World's Ultras<BR><BR><B>NAME</B> = Yusupu Aleketag Shan<BR><B>ELEVATION</B> = 6065<BR><B>PROMINENCE</B> = 1914<BR><B>ID</B> = AS239<BR><B>ALT_NAME</B> = <BR><B>COMMENT</B> = Unofficial Name<BR><B>COUNTRY</B> = China<BR><B>AUTHORS</B> = http://www.PEAKLIST.org]]></description>
		<Point>
			<coordinates>88.90833333,38.19,6065</coordinates>
		</Point>
</Placemark>
<Placemark>
    <styleUrl>#icon0</styleUrl>
    <name>Gora Tardoki-Yani</name>
		<description><![CDATA[World's Ultras<BR><BR><B>NAME</B> = Gora Tardoki-Yani<BR><B>ELEVATION</B> = 2090<BR><B>PROMINENCE</B> = 1989<BR><B>ID</B> = AN021<BR><B>ALT_NAME</B> = <BR><B>COMMENT</B> = <BR><B>COUNTRY</B> = Russia<BR><B>AUTHORS</B> = http://www.PEAKLIST.org]]></description>
		<Point>
			<coordinates>138.05333333,48.89666667,2090</coordinates>
		</Point>
</Placemark>
<Placemark>
    <styleUrl>#icon0</styleUrl>
    <name>Picachos el Fraile</name>
		<description><![CDATA[World's Ultras<BR><BR><B>NAME</B> = Picachos el Fraile<BR><B>ELEVATION</B> = 2390<BR><B>PROMINENCE</B> = 1600<BR><B>ID</B> = CE044<BR><B>ALT_NAME</B> = Mesa de Piños<BR><B>COMMENT</B> = <BR><B>COUNTRY</B> = Mexico<BR><B>AUTHORS</B> = http://www.PEAKLIST.org]]></description>
		<Point>
			<coordinates>-100.61166667,25.8625,2390</coordinates>
		</Point>
</Placemark>
<Placemark>
    <styleUrl>#icon0</styleUrl>
    <name>Mt. Forbes</name>
		<description><![CDATA[World's Ultras<BR><BR><B>NAME</B> = Mt. Forbes<BR><B>ELEVATION</B> = 3617<BR><B>PROMINENCE</B> = 1629<BR><B>ID</B> = CN091<BR><B>ALT_NAME</B> = <BR><B>COMMENT</B> = <BR><B>COUNTRY</B> = Canada<BR><B>AUTHORS</B> = http://www.PEAKLIST.org]]></description>
		<Point>
			<coordinates>-116.93166667,51.86,3617</coordinates>
		</Point>
</Placemark>
<Placemark>
    <styleUrl>#icon0</styleUrl>
    <name>Jabal Sabir</name>
		<description><![CDATA[World's Ultras<BR><BR><B>NAME</B> = Jabal Sabir<BR><B>ELEVATION</B> = 3006<BR><B>PROMINENCE</B> = 1590<BR><B>ID</B> = AF074<BR><B>ALT_NAME</B> = <BR><B>COMMENT</B> = <BR><B>COUNTRY</B> = Yemen<BR><B>AUTHORS</B> = http://www.PEAKLIST.org]]></description>
		<Point>
			<coordinates>44.05083333,13.51583333,3006</coordinates>
		</Point>
</Placemark>
<Placemark>
    <styleUrl>#icon0</styleUrl>
    <name>Mt. Murchison</name>
		<description><![CDATA[World's Ultras<BR><BR><B>NAME</B> = Mt. Murchison<BR><B>ELEVATION</B> = 3501<BR><B>PROMINENCE</B> = 1927<BR><B>ID</B> = AN027<BR><B>ALT_NAME</B> = <BR><B>COMMENT</B> = <BR><B>COUNTRY</B> = Antarctica<BR><B>AUTHORS</B> = http://www.PEAKLIST.org]]></description>
		<Point>
			<coordinates>166.3,-73.41666667,3501</coordinates>
		</Point>
</Placemark>
<Placemark>
    <styleUrl>#icon0</styleUrl>
    <name>Yao Shan</name>
		<description><![CDATA[World's Ultras<BR><BR><B>NAME</B> = Yao Shan<BR><B>ELEVATION</B> = 4050<BR><B>PROMINENCE</B> = 1996<BR><B>ID</B> = AS210<BR><B>ALT_NAME</B> = <BR><B>COMMENT</B> = (cyrillic transliteration)<BR><B>COUNTRY</B> = China<BR><B>AUTHORS</B> = http://www.PEAKLIST.org]]></description>
		<Point>
			<coordinates>103.0775,27.21333333,4050</coordinates>
		</Point>
</Placemark>
<Placemark>
    <styleUrl>#icon0</styleUrl>
    <name>Mt. Pulog</name>
		<description><![CDATA[World's Ultras<BR><BR><B>NAME</B> = Mt. Pulog<BR><B>ELEVATION</B> = 2922<BR><B>PROMINENCE</B> = 2922<BR><B>ID</B> = AS047<BR><B>ALT_NAME</B> = <BR><B>COMMENT</B> = HP of Luzon<BR><B>COUNTRY</B> = Philippines<BR><B>AUTHORS</B> = http://www.PEAKLIST.org]]></description>
		<Point>
			<coordinates>120.89916667,16.5975,2922</coordinates>
		</Point>
</Placemark>
<Placemark>
    <styleUrl>#icon0</styleUrl>
    <name>Loi Pangnao</name>
		<description><![CDATA[World's Ultras<BR><BR><B>NAME</B> = Loi Pangnao<BR><B>ELEVATION</B> = 2563<BR><B>PROMINENCE</B> = 1596<BR><B>ID</B> = AS516<BR><B>ALT_NAME</B> = <BR><B>COMMENT</B> = <BR><B>COUNTRY</B> = Burma<BR><B>AUTHORS</B> = http://www.PEAKLIST.org]]></description>
		<Point>
			<coordinates>100.31333333,21.30333333,2563</coordinates>
		</Point>
</Placemark>
<Placemark>
    <styleUrl>#icon0</styleUrl>
    <name>Sibium Mtns. HP</name>
		<description><![CDATA[World's Ultras<BR><BR><B>NAME</B> = Sibium Mtns. HP<BR><B>ELEVATION</B> = 2295<BR><B>PROMINENCE</B> = 1555<BR><B>ID</B> = PN029<BR><B>ALT_NAME</B> = <BR><B>COMMENT</B> = <BR><B>COUNTRY</B> = Papua New Guinea<BR><B>AUTHORS</B> = http://www.PEAKLIST.org]]></description>
		<Point>
			<coordinates>148.35833333,-9.32583333,2295</coordinates>
		</Point>
</Placemark>
<Placemark>
    <styleUrl>#icon0</styleUrl>
    <name>Mt. Tod</name>
		<description><![CDATA[World's Ultras<BR><BR><B>NAME</B> = Mt. Tod<BR><B>ELEVATION</B> = 2155<BR><B>PROMINENCE</B> = 1523<BR><B>ID</B> = CN130<BR><B>ALT_NAME</B> = <BR><B>COMMENT</B> = <BR><B>COUNTRY</B> = Canada<BR><B>AUTHORS</B> = http://www.PEAKLIST.org]]></description>
		<Point>
			<coordinates>-119.94166667,50.91666667000001,2155</coordinates>
		</Point>
</Placemark>
<Placemark>
    <styleUrl>#icon0</styleUrl>
    <name>Hudson Bay Mtn.</name>
		<description><![CDATA[World's Ultras<BR><BR><B>NAME</B> = Hudson Bay Mtn.<BR><B>ELEVATION</B> = 2589<BR><B>PROMINENCE</B> = 1609<BR><B>ID</B> = CN100<BR><B>ALT_NAME</B> = <BR><B>COMMENT</B> = <BR><B>COUNTRY</B> = Canada<BR><B>AUTHORS</B> = http://www.PEAKLIST.org]]></description>
		<Point>
			<coordinates>-127.33972222,54.81166667,2589</coordinates>
		</Point>
</Placemark>
<Placemark>
    <styleUrl>#icon0</styleUrl>
    <name>Pic Boby</name>
		<description><![CDATA[World's Ultras<BR><BR><B>NAME</B> = Pic Boby<BR><B>ELEVATION</B> = 2658<BR><B>PROMINENCE</B> = 1875<BR><B>ID</B> = AF040<BR><B>ALT_NAME</B> = <BR><B>COMMENT</B> = <BR><B>COUNTRY</B> = Madagascar<BR><B>AUTHORS</B> = http://www.PEAKLIST.org]]></description>
		<Point>
			<coordinates>46.885,-22.195,2658</coordinates>
		</Point>
</Placemark>
<Placemark>
    <styleUrl>#icon0</styleUrl>
    <name>Dalton Range HP</name>
		<description><![CDATA[World's Ultras<BR><BR><B>NAME</B> = Dalton Range HP<BR><B>ELEVATION</B> = 2329<BR><B>PROMINENCE</B> = 1555<BR><B>ID</B> = CN915<BR><B>ALT_NAME</B> = <BR><B>COMMENT</B> = Unnamed Summit<BR><B>COUNTRY</B> = Canada<BR><B>AUTHORS</B> = http://www.PEAKLIST.org]]></description>
		<Point>
			<coordinates>-137.16916667,60.47583332999999,2329</coordinates>
		</Point>
</Placemark>
<Placemark>
    <styleUrl>#icon0</styleUrl>
    <name>Killi Tepe</name>
		<description><![CDATA[World's Ultras<BR><BR><B>NAME</B> = Killi Tepe<BR><B>ELEVATION</B> = 3075<BR><B>PROMINENCE</B> = 1547<BR><B>ID</B> = AS578<BR><B>ALT_NAME</B> = <BR><B>COMMENT</B> = <BR><B>COUNTRY</B> = Turkey<BR><B>AUTHORS</B> = http://www.PEAKLIST.org]]></description>
		<Point>
			<coordinates>37.48666667,38.02833333,3075</coordinates>
		</Point>
</Placemark>
<Placemark>
    <styleUrl>#icon0</styleUrl>
    <name>Mt. Talawe</name>
		<description><![CDATA[World's Ultras<BR><BR><B>NAME</B> = Mt. Talawe<BR><B>ELEVATION</B> = 1824<BR><B>PROMINENCE</B> = 1773<BR><B>ID</B> = PN020<BR><B>ALT_NAME</B> = <BR><B>COMMENT</B> = <BR><B>COUNTRY</B> = Papua New Guinea<BR><B>AUTHORS</B> = http://www.PEAKLIST.org]]></description>
		<Point>
			<coordinates>148.39666667,-5.5375,1824</coordinates>
		</Point>
</Placemark>
<Placemark>
    <styleUrl>#icon0</styleUrl>
    <name>P. 5716</name>
		<description><![CDATA[World's Ultras<BR><BR><B>NAME</B> = P. 5716<BR><B>ELEVATION</B> = 5716<BR><B>PROMINENCE</B> = 1647<BR><B>ID</B> = AS437<BR><B>ALT_NAME</B> = <BR><B>COMMENT</B> = Unknown Name<BR><B>COUNTRY</B> = China<BR><B>AUTHORS</B> = http://www.PEAKLIST.org]]></description>
		<Point>
			<coordinates>80.6275,42.35166667,5716</coordinates>
		</Point>
</Placemark>
<Placemark>
    <styleUrl>#icon0</styleUrl>
    <name>Kuh-e Siah Khvani</name>
		<description><![CDATA[World's Ultras<BR><BR><B>NAME</B> = Kuh-e Siah Khvani<BR><B>ELEVATION</B> = 3314<BR><B>PROMINENCE</B> = 1870<BR><B>ID</B> = AS271<BR><B>ALT_NAME</B> = <BR><B>COMMENT</B> = <BR><B>COUNTRY</B> = Iran<BR><B>AUTHORS</B> = http://www.PEAKLIST.org]]></description>
		<Point>
			<coordinates>59.04916667000001,36.28083333,3314</coordinates>
		</Point>
</Placemark>
<Placemark>
    <styleUrl>#icon0</styleUrl>
    <name>Cerro Aguja Sur</name>
		<description><![CDATA[World's Ultras<BR><BR><B>NAME</B> = Cerro Aguja Sur<BR><B>ELEVATION</B> = 2230<BR><B>PROMINENCE</B> = 1564<BR><B>ID</B> = SA158<BR><B>ALT_NAME</B> = <BR><B>COMMENT</B> = <BR><B>COUNTRY</B> = Argentina, Chile<BR><B>AUTHORS</B> = http://www.PEAKLIST.org]]></description>
		<Point>
			<coordinates>-71.83416667,-42.1625,2230</coordinates>
		</Point>
</Placemark>
<Placemark>
    <styleUrl>#icon0</styleUrl>
    <name>Mt. Victoria</name>
		<description><![CDATA[World's Ultras<BR><BR><B>NAME</B> = Mt. Victoria<BR><B>ELEVATION</B> = 3070<BR><B>PROMINENCE</B> = 2148<BR><B>ID</B> = AS157<BR><B>ALT_NAME</B> = <BR><B>COMMENT</B> = <BR><B>COUNTRY</B> = Burma<BR><B>AUTHORS</B> = http://www.PEAKLIST.org]]></description>
		<Point>
			<coordinates>93.90333333,21.23333333,3070</coordinates>
		</Point>
</Placemark>
<Placemark>
    <styleUrl>#icon0</styleUrl>
    <name>Cerro Fitzroy</name>
		<description><![CDATA[World's Ultras<BR><BR><B>NAME</B> = Cerro Fitzroy<BR><B>ELEVATION</B> = 3405<BR><B>PROMINENCE</B> = 1951<BR><B>ID</B> = SA076<BR><B>ALT_NAME</B> = Chalten<BR><B>COMMENT</B> = <BR><B>COUNTRY</B> = Argentina<BR><B>AUTHORS</B> = http://www.PEAKLIST.org]]></description>
		<Point>
			<coordinates>-73.04666666999999,-49.27166666999999,3405</coordinates>
		</Point>
</Placemark>
<Placemark>
    <styleUrl>#icon0</styleUrl>
    <name>Tengu-dake</name>
		<description><![CDATA[World's Ultras<BR><BR><B>NAME</B> = Tengu-dake<BR><B>ELEVATION</B> = 1982<BR><B>PROMINENCE</B> = 1982<BR><B>ID</B> = AS209<BR><B>ALT_NAME</B> = <BR><B>COMMENT</B> = <BR><B>COUNTRY</B> = Japan<BR><B>AUTHORS</B> = http://www.PEAKLIST.org]]></description>
		<Point>
			<coordinates>133.11416667,33.76666667,1982</coordinates>
		</Point>
</Placemark>
<Placemark>
    <styleUrl>#icon0</styleUrl>
    <name>Ortlés</name>
		<description><![CDATA[World's Ultras<BR><BR><B>NAME</B> = Ortlés<BR><B>ELEVATION</B> = 3905<BR><B>PROMINENCE</B> = 1953<BR><B>ID</B> = EU031<BR><B>ALT_NAME</B> = Ortler<BR><B>COMMENT</B> = <BR><B>COUNTRY</B> = Italy<BR><B>AUTHORS</B> = http://www.PEAKLIST.org]]></description>
		<Point>
			<coordinates>10.54472222,46.50888889,3905</coordinates>
		</Point>
</Placemark>
<Placemark>
    <styleUrl>#icon0</styleUrl>
    <name>Pik Semionova Tien-Shanskogo</name>
		<description><![CDATA[World's Ultras<BR><BR><B>NAME</B> = Pik Semionova Tien-Shanskogo<BR><B>ELEVATION</B> = 4895<BR><B>PROMINENCE</B> = 2231<BR><B>ID</B> = AS147<BR><B>ALT_NAME</B> = <BR><B>COMMENT</B> = HP of Ala-Archa<BR><B>COUNTRY</B> = Kyrgyzstan<BR><B>AUTHORS</B> = http://www.PEAKLIST.org]]></description>
		<Point>
			<coordinates>74.58083333,42.50583333,4895</coordinates>
		</Point>
</Placemark>
<Placemark>
    <styleUrl>#icon0</styleUrl>
    <name>Nyegyi Kansang</name>
		<description><![CDATA[World's Ultras<BR><BR><B>NAME</B> = Nyegyi Kansang<BR><B>ELEVATION</B> = 6983<BR><B>PROMINENCE</B> = 1688<BR><B>ID</B> = AS340<BR><B>ALT_NAME</B> = <BR><B>COMMENT</B> = <BR><B>COUNTRY</B> = China, India<BR><B>AUTHORS</B> = http://www.PEAKLIST.org]]></description>
		<Point>
			<coordinates>92.66666667,27.93666667,6983</coordinates>
		</Point>
</Placemark>
<Placemark>
    <styleUrl>#icon0</styleUrl>
    <name>Hahn Land HP</name>
		<description><![CDATA[World's Ultras<BR><BR><B>NAME</B> = Hahn Land HP<BR><B>ELEVATION</B> = 1744<BR><B>PROMINENCE</B> = 1694<BR><B>ID</B> = GN019<BR><B>ALT_NAME</B> = <BR><B>COMMENT</B> = <BR><B>COUNTRY</B> = Greenland<BR><B>AUTHORS</B> = http://www.PEAKLIST.org]]></description>
		<Point>
			<coordinates>-19.83333333,80.43333333,1744</coordinates>
		</Point>
</Placemark>
<Placemark>
    <styleUrl>#icon0</styleUrl>
    <name>Sangpang Bum</name>
		<description><![CDATA[World's Ultras<BR><BR><B>NAME</B> = Sangpang Bum<BR><B>ELEVATION</B> = 2692<BR><B>PROMINENCE</B> = 1655<BR><B>ID</B> = AS441<BR><B>ALT_NAME</B> = <BR><B>COMMENT</B> = <BR><B>COUNTRY</B> = Burma<BR><B>AUTHORS</B> = http://www.PEAKLIST.org]]></description>
		<Point>
			<coordinates>95.84583333,26.49083333,2692</coordinates>
		</Point>
</Placemark>
<Placemark>
    <styleUrl>#icon0</styleUrl>
    <name>Jinping Shan</name>
		<description><![CDATA[World's Ultras<BR><BR><B>NAME</B> = Jinping Shan<BR><B>ELEVATION</B> = 4488<BR><B>PROMINENCE</B> = 1676<BR><B>ID</B> = AS488<BR><B>ALT_NAME</B> = <BR><B>COMMENT</B> = <BR><B>COUNTRY</B> = China<BR><B>AUTHORS</B> = http://www.PEAKLIST.org]]></description>
		<Point>
			<coordinates>101.75416667,28.3425,4488</coordinates>
		</Point>
</Placemark>
<Placemark>
    <styleUrl>#icon0</styleUrl>
    <name>Benjiwo</name>
		<description><![CDATA[World's Ultras<BR><BR><B>NAME</B> = Benjiwo<BR><B>ELEVATION</B> = 1953<BR><B>PROMINENCE</B> = 1625<BR><B>ID</B> = AS472<BR><B>ALT_NAME</B> = <BR><B>COMMENT</B> = <BR><B>COUNTRY</B> = China<BR><B>AUTHORS</B> = http://www.PEAKLIST.org]]></description>
		<Point>
			<coordinates>112.00333333,25.2475,1953</coordinates>
		</Point>
</Placemark>
<Placemark>
    <styleUrl>#icon0</styleUrl>
    <name>P. 3030</name>
		<description><![CDATA[World's Ultras<BR><BR><B>NAME</B> = P. 3030<BR><B>ELEVATION</B> = 3030<BR><B>PROMINENCE</B> = 1656<BR><B>ID</B> = AS438<BR><B>ALT_NAME</B> = <BR><B>COMMENT</B> = Unknown Name<BR><B>COUNTRY</B> = China<BR><B>AUTHORS</B> = http://www.PEAKLIST.org]]></description>
		<Point>
			<coordinates>104.84583333,32.35666667,3030</coordinates>
		</Point>
</Placemark>
<Placemark>
    <styleUrl>#icon0</styleUrl>
    <name>Pik Tandykul</name>
		<description><![CDATA[World's Ultras<BR><BR><B>NAME</B> = Pik Tandykul<BR><B>ELEVATION</B> = 5544<BR><B>PROMINENCE</B> = 1677<BR><B>ID</B> = AS415<BR><B>ALT_NAME</B> = <BR><B>COMMENT</B> = <BR><B>COUNTRY</B> = Kyrgyzstan, Tajikistan<BR><B>AUTHORS</B> = http://www.PEAKLIST.org]]></description>
		<Point>
			<coordinates>71.08333333,39.44833333,5544</coordinates>
		</Point>
</Placemark>
<Placemark>
    <styleUrl>#icon0</styleUrl>
    <name>Verkhne-Angarskiy Khrebet HP</name>
		<description><![CDATA[World's Ultras<BR><BR><B>NAME</B> = Verkhne-Angarskiy Khrebet HP<BR><B>ELEVATION</B> = 2641<BR><B>PROMINENCE</B> = 1819<BR><B>ID</B> = AN029<BR><B>ALT_NAME</B> = <BR><B>COMMENT</B> = <BR><B>COUNTRY</B> = Russia<BR><B>AUTHORS</B> = http://www.PEAKLIST.org]]></description>
		<Point>
			<coordinates>111.6475,56.35583333,2641</coordinates>
		</Point>
</Placemark>
<Placemark>
    <styleUrl>#icon0</styleUrl>
    <name>Mt. Sir Sandford</name>
		<description><![CDATA[World's Ultras<BR><BR><B>NAME</B> = Mt. Sir Sandford<BR><B>ELEVATION</B> = 3519<BR><B>PROMINENCE</B> = 2707<BR><B>ID</B> = CN010<BR><B>ALT_NAME</B> = <BR><B>COMMENT</B> = <BR><B>COUNTRY</B> = Canada<BR><B>AUTHORS</B> = http://www.PEAKLIST.org]]></description>
		<Point>
			<coordinates>-117.8675,51.65666667000001,3519</coordinates>
		</Point>
</Placemark>
<Placemark>
    <styleUrl>#icon0</styleUrl>
    <name>Nevado Champara</name>
		<description><![CDATA[World's Ultras<BR><BR><B>NAME</B> = Nevado Champara<BR><B>ELEVATION</B> = 5735<BR><B>PROMINENCE</B> = 1509<BR><B>ID</B> = SA201<BR><B>ALT_NAME</B> = <BR><B>COMMENT</B> = <BR><B>COUNTRY</B> = Peru<BR><B>AUTHORS</B> = http://www.PEAKLIST.org]]></description>
		<Point>
			<coordinates>-77.79083333,-8.685,5735</coordinates>
		</Point>
</Placemark>
<Placemark>
    <styleUrl>#icon0</styleUrl>
    <name>Skihist Mtn.</name>
		<description><![CDATA[World's Ultras<BR><BR><B>NAME</B> = Skihist Mtn.<BR><B>ELEVATION</B> = 2968<BR><B>PROMINENCE</B> = 2463<BR><B>ID</B> = CN013<BR><B>ALT_NAME</B> = <BR><B>COMMENT</B> = <BR><B>COUNTRY</B> = Canada<BR><B>AUTHORS</B> = http://www.PEAKLIST.org]]></description>
		<Point>
			<coordinates>-121.90333333,50.18777777999999,2968</coordinates>
		</Point>
</Placemark>
<Placemark>
    <styleUrl>#icon0</styleUrl>
    <name>Rangrik Rang</name>
		<description><![CDATA[World's Ultras<BR><BR><B>NAME</B> = Rangrik Rang<BR><B>ELEVATION</B> = 6684<BR><B>PROMINENCE</B> = 1668<BR><B>ID</B> = AS391<BR><B>ALT_NAME</B> = <BR><B>COMMENT</B> = <BR><B>COUNTRY</B> = India<BR><B>AUTHORS</B> = http://www.PEAKLIST.org]]></description>
		<Point>
			<coordinates>78.61,31.3525,6684.000000000001</coordinates>
		</Point>
</Placemark>
<Placemark>
    <styleUrl>#icon0</styleUrl>
    <name>Api</name>
		<description><![CDATA[World's Ultras<BR><BR><B>NAME</B> = Api<BR><B>ELEVATION</B> = 7132<BR><B>PROMINENCE</B> = 2040<BR><B>ID</B> = AS189<BR><B>ALT_NAME</B> = <BR><B>COMMENT</B> = <BR><B>COUNTRY</B> = Nepal<BR><B>AUTHORS</B> = http://www.PEAKLIST.org]]></description>
		<Point>
			<coordinates>80.92916667,30.00666667,7132</coordinates>
		</Point>
</Placemark>
<Placemark>
    <styleUrl>#icon0</styleUrl>
    <name>Mt. Sir Wilfrid Laurier</name>
		<description><![CDATA[World's Ultras<BR><BR><B>NAME</B> = Mt. Sir Wilfrid Laurier<BR><B>ELEVATION</B> = 3516<BR><B>PROMINENCE</B> = 2728<BR><B>ID</B> = CN008<BR><B>ALT_NAME</B> = <BR><B>COMMENT</B> = <BR><B>COUNTRY</B> = Canada<BR><B>AUTHORS</B> = http://www.PEAKLIST.org]]></description>
		<Point>
			<coordinates>-119.73138889,52.80138889,3516</coordinates>
		</Point>
</Placemark>
<Placemark>
    <styleUrl>#icon0</styleUrl>
    <name>Lunkho e Dosare</name>
		<description><![CDATA[World's Ultras<BR><BR><B>NAME</B> = Lunkho e Dosare<BR><B>ELEVATION</B> = 6902<BR><B>PROMINENCE</B> = 1667<BR><B>ID</B> = AS411<BR><B>ALT_NAME</B> = Lunkhoye Dosare<BR><B>COMMENT</B> = <BR><B>COUNTRY</B> = Afghanistan, Pakistan<BR><B>AUTHORS</B> = http://www.PEAKLIST.org]]></description>
		<Point>
			<coordinates>72.44,36.77583333,6901.999999999999</coordinates>
		</Point>
</Placemark>
<Placemark>
    <styleUrl>#icon0</styleUrl>
    <name>Miyanoura-dake</name>
		<description><![CDATA[World's Ultras<BR><BR><B>NAME</B> = Miyanoura-dake<BR><B>ELEVATION</B> = 1936<BR><B>PROMINENCE</B> = 1936<BR><B>ID</B> = AS201<BR><B>ALT_NAME</B> = <BR><B>COMMENT</B> = HP of Yaku-shima<BR><B>COUNTRY</B> = Japan<BR><B>AUTHORS</B> = http://www.PEAKLIST.org]]></description>
		<Point>
			<coordinates>130.5025,30.33583333,1936</coordinates>
		</Point>
</Placemark>
<Placemark>
    <styleUrl>#icon0</styleUrl>
    <name>Chiri-san</name>
		<description><![CDATA[World's Ultras<BR><BR><B>NAME</B> = Chiri-san<BR><B>ELEVATION</B> = 1915<BR><B>PROMINENCE</B> = 1696<BR><B>ID</B> = AS389<BR><B>ALT_NAME</B> = <BR><B>COMMENT</B> = <BR><B>COUNTRY</B> = South Korea<BR><B>AUTHORS</B> = http://www.PEAKLIST.org]]></description>
		<Point>
			<coordinates>127.73,35.33916667,1915</coordinates>
		</Point>
</Placemark>
<Placemark>
    <styleUrl>#icon0</styleUrl>
    <name>Mt. Steller</name>
		<description><![CDATA[World's Ultras<BR><BR><B>NAME</B> = Mt. Steller<BR><B>ELEVATION</B> = 3266<BR><B>PROMINENCE</B> = 1696<BR><B>ID</B> = AK048<BR><B>ALT_NAME</B> = <BR><B>COMMENT</B> = <BR><B>COUNTRY</B> = USA<BR><B>AUTHORS</B> = http://www.PEAKLIST.org]]></description>
		<Point>
			<coordinates>-143.09388889,60.52027778,3266</coordinates>
		</Point>
</Placemark>
<Placemark>
    <styleUrl>#icon0</styleUrl>
    <name>Cerro Arenales</name>
		<description><![CDATA[World's Ultras<BR><BR><B>NAME</B> = Cerro Arenales<BR><B>ELEVATION</B> = 3437<BR><B>PROMINENCE</B> = 1900<BR><B>ID</B> = SA092<BR><B>ALT_NAME</B> = <BR><B>COMMENT</B> = <BR><B>COUNTRY</B> = Chile<BR><B>AUTHORS</B> = http://www.PEAKLIST.org]]></description>
		<Point>
			<coordinates>-73.46833332999999,-47.19583333,3437</coordinates>
		</Point>
</Placemark>
<Placemark>
    <styleUrl>#icon0</styleUrl>
    <name>Bukit Raya</name>
		<description><![CDATA[World's Ultras<BR><BR><B>NAME</B> = Bukit Raya<BR><B>ELEVATION</B> = 2300<BR><B>PROMINENCE</B> = 2018<BR><B>ID</B> = AS197<BR><B>ALT_NAME</B> = <BR><B>COMMENT</B> = <BR><B>COUNTRY</B> = Indonesia<BR><B>AUTHORS</B> = http://www.PEAKLIST.org]]></description>
		<Point>
			<coordinates>112.68833333,-0.65916667,2300</coordinates>
		</Point>
</Placemark>
<Placemark>
    <styleUrl>#icon0</styleUrl>
    <name>Flat Top Mtn.</name>
		<description><![CDATA[World's Ultras<BR><BR><B>NAME</B> = Flat Top Mtn.<BR><B>ELEVATION</B> = 3237<BR><B>PROMINENCE</B> = 1641<BR><B>ID</B> = US044<BR><B>ALT_NAME</B> = <BR><B>COMMENT</B> = <BR><B>COUNTRY</B> = USA<BR><B>AUTHORS</B> = http://www.PEAKLIST.org]]></description>
		<Point>
			<coordinates>-112.18888889,40.3725,3237</coordinates>
		</Point>
</Placemark>
<Placemark>
    <styleUrl>#icon0</styleUrl>
    <name>Cerro Tia Chena</name>
		<description><![CDATA[World's Ultras<BR><BR><B>NAME</B> = Cerro Tia Chena<BR><B>ELEVATION</B> = 2630<BR><B>PROMINENCE</B> = 1885<BR><B>ID</B> = CE020<BR><B>ALT_NAME</B> = Sierra de Minas Viejas<BR><B>COMMENT</B> = <BR><B>COUNTRY</B> = Mexico<BR><B>AUTHORS</B> = http://www.PEAKLIST.org]]></description>
		<Point>
			<coordinates>-100.55666667,26.12,2630</coordinates>
		</Point>
</Placemark>
<Placemark>
    <styleUrl>#icon0</styleUrl>
    <name>Mt. Friesland</name>
		<description><![CDATA[World's Ultras<BR><BR><B>NAME</B> = Mt. Friesland<BR><B>ELEVATION</B> = 1700<BR><B>PROMINENCE</B> = 1700<BR><B>ID</B> = AN023<BR><B>ALT_NAME</B> = <BR><B>COMMENT</B> = HP of Livingston Island<BR><B>COUNTRY</B> = Antarctica<BR><B>AUTHORS</B> = http://www.PEAKLIST.org]]></description>
		<Point>
			<coordinates>-60.18333333000001,-62.66666667,1700</coordinates>
		</Point>
</Placemark>
<Placemark>
    <styleUrl>#icon0</styleUrl>
    <name>Pico Turquino</name>
		<description><![CDATA[World's Ultras<BR><BR><B>NAME</B> = Pico Turquino<BR><B>ELEVATION</B> = 2005<BR><B>PROMINENCE</B> = 2005<BR><B>ID</B> = MA010<BR><B>ALT_NAME</B> = <BR><B>COMMENT</B> = HP of Cuba<BR><B>COUNTRY</B> = Cuba<BR><B>AUTHORS</B> = http://www.PEAKLIST.org]]></description>
		<Point>
			<coordinates>-76.83666667,19.99,2005</coordinates>
		</Point>
</Placemark>
<Placemark>
    <styleUrl>#icon0</styleUrl>
    <name>Snowshoe Peak</name>
		<description><![CDATA[World's Ultras<BR><BR><B>NAME</B> = Snowshoe Peak<BR><B>ELEVATION</B> = 2663<BR><B>PROMINENCE</B> = 1657<BR><B>ID</B> = US039<BR><B>ALT_NAME</B> = <BR><B>COMMENT</B> = <BR><B>COUNTRY</B> = USA<BR><B>AUTHORS</B> = http://www.PEAKLIST.org]]></description>
		<Point>
			<coordinates>-115.68916667,48.22305556,2663</coordinates>
		</Point>
</Placemark>
<Placemark>
    <styleUrl>#icon0</styleUrl>
    <name>Gunung Careme</name>
		<description><![CDATA[World's Ultras<BR><BR><B>NAME</B> = Gunung Careme<BR><B>ELEVATION</B> = 3078<BR><B>PROMINENCE</B> = 2793<BR><B>ID</B> = AS059<BR><B>ALT_NAME</B> = <BR><B>COMMENT</B> = <BR><B>COUNTRY</B> = Indonesia<BR><B>AUTHORS</B> = http://www.PEAKLIST.org]]></description>
		<Point>
			<coordinates>108.40666667,-6.893333330000001,3078</coordinates>
		</Point>
</Placemark>
<Placemark>
    <styleUrl>#icon0</styleUrl>
    <name>Kuh-e Karkas</name>
		<description><![CDATA[World's Ultras<BR><BR><B>NAME</B> = Kuh-e Karkas<BR><B>ELEVATION</B> = 3870<BR><B>PROMINENCE</B> = 1698<BR><B>ID</B> = AS398<BR><B>ALT_NAME</B> = <BR><B>COMMENT</B> = <BR><B>COUNTRY</B> = Iran<BR><B>AUTHORS</B> = http://www.PEAKLIST.org]]></description>
		<Point>
			<coordinates>51.8,33.45583333,3870</coordinates>
		</Point>
</Placemark>
<Placemark>
    <styleUrl>#icon0</styleUrl>
    <name>Rugged Mtn.</name>
		<description><![CDATA[World's Ultras<BR><BR><B>NAME</B> = Rugged Mtn.<BR><B>ELEVATION</B> = 1875<BR><B>PROMINENCE</B> = 1585<BR><B>ID</B> = CN108<BR><B>ALT_NAME</B> = <BR><B>COMMENT</B> = <BR><B>COUNTRY</B> = Canada<BR><B>AUTHORS</B> = http://www.PEAKLIST.org]]></description>
		<Point>
			<coordinates>-126.68333333,50.01666667,1875</coordinates>
		</Point>
</Placemark>
<Placemark>
    <styleUrl>#icon0</styleUrl>
    <name>Cero Raya</name>
		<description><![CDATA[World's Ultras<BR><BR><B>NAME</B> = Cero Raya<BR><B>ELEVATION</B> = 2070<BR><B>PROMINENCE</B> = 1686<BR><B>ID</B> = SA134<BR><B>ALT_NAME</B> = <BR><B>COMMENT</B> = <BR><B>COUNTRY</B> = Venezuela<BR><B>AUTHORS</B> = http://www.PEAKLIST.org]]></description>
		<Point>
			<coordinates>-66.36666667,5.41666667,2070</coordinates>
		</Point>
</Placemark>
<Placemark>
    <styleUrl>#icon0</styleUrl>
    <name>Mt. Busa</name>
		<description><![CDATA[World's Ultras<BR><BR><B>NAME</B> = Mt. Busa<BR><B>ELEVATION</B> = 2030<BR><B>PROMINENCE</B> = 1661<BR><B>ID</B> = AS444<BR><B>ALT_NAME</B> = <BR><B>COMMENT</B> = <BR><B>COUNTRY</B> = Philippines<BR><B>AUTHORS</B> = http://www.PEAKLIST.org]]></description>
		<Point>
			<coordinates>124.68583333,6.10916667,2030</coordinates>
		</Point>
</Placemark>
<Placemark>
    <styleUrl>#icon0</styleUrl>
    <name>Ukpik Peak</name>
		<description><![CDATA[World's Ultras<BR><BR><B>NAME</B> = Ukpik Peak<BR><B>ELEVATION</B> = 1809<BR><B>PROMINENCE</B> = 1650<BR><B>ID</B> = CN929<BR><B>ALT_NAME</B> = <BR><B>COMMENT</B> = <BR><B>COUNTRY</B> = Canada<BR><B>AUTHORS</B> = http://www.PEAKLIST.org]]></description>
		<Point>
			<coordinates>-71.34166667,70.69416667,1809</coordinates>
		</Point>
</Placemark>
<Placemark>
    <styleUrl>#icon0</styleUrl>
    <name>Shengtang Shan</name>
		<description><![CDATA[World's Ultras<BR><BR><B>NAME</B> = Shengtang Shan<BR><B>ELEVATION</B> = 1935<BR><B>PROMINENCE</B> = 1785<BR><B>ID</B> = AS325<BR><B>ALT_NAME</B> = <BR><B>COMMENT</B> = <BR><B>COUNTRY</B> = China<BR><B>AUTHORS</B> = http://www.PEAKLIST.org]]></description>
		<Point>
			<coordinates>110.0975,23.975,1935</coordinates>
		</Point>
</Placemark>
<Placemark>
    <styleUrl>#icon0</styleUrl>
    <name>Cerro Penitentes</name>
		<description><![CDATA[World's Ultras<BR><BR><B>NAME</B> = Cerro Penitentes<BR><B>ELEVATION</B> = 2943<BR><B>PROMINENCE</B> = 1612<BR><B>ID</B> = SA156<BR><B>ALT_NAME</B> = <BR><B>COMMENT</B> = <BR><B>COUNTRY</B> = Argentina<BR><B>AUTHORS</B> = http://www.PEAKLIST.org]]></description>
		<Point>
			<coordinates>-72.25166667000001,-47.675,2943</coordinates>
		</Point>
</Placemark>
<Placemark>
    <styleUrl>#icon0</styleUrl>
    <name>Mali i Çikës</name>
		<description><![CDATA[World's Ultras<BR><BR><B>NAME</B> = Mali i Çikës<BR><B>ELEVATION</B> = 2044<BR><B>PROMINENCE</B> = 1563<BR><B>ID</B> = EU083<BR><B>ALT_NAME</B> = <BR><B>COMMENT</B> = <BR><B>COUNTRY</B> = Albania<BR><B>AUTHORS</B> = http://www.PEAKLIST.org]]></description>
		<Point>
			<coordinates>19.64194444,40.19833333,2044</coordinates>
		</Point>
</Placemark>
<Placemark>
    <styleUrl>#icon0</styleUrl>
    <name>Gora Belukha</name>
		<description><![CDATA[World's Ultras<BR><BR><B>NAME</B> = Gora Belukha<BR><B>ELEVATION</B> = 4506<BR><B>PROMINENCE</B> = 3343<BR><B>ID</B> = AN002<BR><B>ALT_NAME</B> = <BR><B>COMMENT</B> = <BR><B>COUNTRY</B> = Kazakhstan, Russia<BR><B>AUTHORS</B> = http://www.PEAKLIST.org]]></description>
		<Point>
			<coordinates>86.59,49.8075,4506</coordinates>
		</Point>
</Placemark>
<Placemark>
    <styleUrl>#icon0</styleUrl>
    <name>Pik Imeni Ismail Samani</name>
		<description><![CDATA[World's Ultras<BR><BR><B>NAME</B> = Pik Imeni Ismail Samani<BR><B>ELEVATION</B> = 7495<BR><B>PROMINENCE</B> = 3402<BR><B>ID</B> = AS023<BR><B>ALT_NAME</B> = Qullai Ismailo Somoni, ex. Kommunizma<BR><B>COMMENT</B> = HP of Tajikistan.<BR><B>COUNTRY</B> = Tajikstan<BR><B>AUTHORS</B> = http://www.PEAKLIST.org]]></description>
		<Point>
			<coordinates>72.015,38.9425,7495</coordinates>
		</Point>
</Placemark>
<Placemark>
    <styleUrl>#icon0</styleUrl>
    <name>Mizri Ghar</name>
		<description><![CDATA[World's Ultras<BR><BR><B>NAME</B> = Mizri Ghar<BR><B>ELEVATION</B> = 3111<BR><B>PROMINENCE</B> = 1618<BR><B>ID</B> = AS490<BR><B>ALT_NAME</B> = <BR><B>COMMENT</B> = <BR><B>COUNTRY</B> = Pakistan<BR><B>AUTHORS</B> = http://www.PEAKLIST.org]]></description>
		<Point>
			<coordinates>70.02916667,31.34083333,3111</coordinates>
		</Point>
</Placemark>
<Placemark>
    <styleUrl>#icon0</styleUrl>
    <name>Kuh-e Nozva</name>
		<description><![CDATA[World's Ultras<BR><BR><B>NAME</B> = Kuh-e Nozva<BR><B>ELEVATION</B> = 3730<BR><B>PROMINENCE</B> = 1510<BR><B>ID</B> = AS611<BR><B>ALT_NAME</B> = <BR><B>COMMENT</B> = <BR><B>COUNTRY</B> = Iran<BR><B>AUTHORS</B> = http://www.PEAKLIST.org]]></description>
		<Point>
			<coordinates>53.325,35.9425,3730</coordinates>
		</Point>
</Placemark>
<Placemark>
    <styleUrl>#icon0</styleUrl>
    <name>Bairiga</name>
		<description><![CDATA[World's Ultras<BR><BR><B>NAME</B> = Bairiga<BR><B>ELEVATION</B> = 6882<BR><B>PROMINENCE</B> = 2444<BR><B>ID</B> = AS111<BR><B>ALT_NAME</B> = Ruoni<BR><B>COMMENT</B> = <BR><B>COUNTRY</B> = China<BR><B>AUTHORS</B> = http://www.PEAKLIST.org]]></description>
		<Point>
			<coordinates>96.72416667,29.16583333000001,6882</coordinates>
		</Point>
</Placemark>
<Placemark>
    <styleUrl>#icon0</styleUrl>
    <name>Gunung Leuser</name>
		<description><![CDATA[World's Ultras<BR><BR><B>NAME</B> = Gunung Leuser<BR><B>ELEVATION</B> = 3466<BR><B>PROMINENCE</B> = 2941<BR><B>ID</B> = AS045<BR><B>ALT_NAME</B> = <BR><B>COMMENT</B> = <BR><B>COUNTRY</B> = Indonesia<BR><B>AUTHORS</B> = http://www.PEAKLIST.org]]></description>
		<Point>
			<coordinates>97.21916667000001,3.7975,3466</coordinates>
		</Point>
</Placemark>
<Placemark>
    <styleUrl>#icon0</styleUrl>
    <name>Gauri Shankar</name>
		<description><![CDATA[World's Ultras<BR><BR><B>NAME</B> = Gauri Shankar<BR><B>ELEVATION</B> = 7135<BR><B>PROMINENCE</B> = 1589<BR><B>ID</B> = AS378<BR><B>ALT_NAME</B> = <BR><B>COMMENT</B> = <BR><B>COUNTRY</B> = China, Nepal<BR><B>AUTHORS</B> = http://www.PEAKLIST.org]]></description>
		<Point>
			<coordinates>86.33583333,27.95333333,7135</coordinates>
		</Point>
</Placemark>
<Placemark>
    <styleUrl>#icon0</styleUrl>
    <name>Chamar</name>
		<description><![CDATA[World's Ultras<BR><BR><B>NAME</B> = Chamar<BR><B>ELEVATION</B> = 7165<BR><B>PROMINENCE</B> = 2061<BR><B>ID</B> = AS168<BR><B>ALT_NAME</B> = <BR><B>COMMENT</B> = HP of Sringi Himal<BR><B>COUNTRY</B> = Nepal<BR><B>AUTHORS</B> = http://www.PEAKLIST.org]]></description>
		<Point>
			<coordinates>84.94499999999999,28.55333333,7165</coordinates>
		</Point>
</Placemark>
<Placemark>
    <styleUrl>#icon0</styleUrl>
    <name>P. 1830</name>
		<description><![CDATA[World's Ultras<BR><BR><B>NAME</B> = P. 1830<BR><B>ELEVATION</B> = 1830<BR><B>PROMINENCE</B> = 1541<BR><B>ID</B> = SA188<BR><B>ALT_NAME</B> = <BR><B>COMMENT</B> = Unknown Name<BR><B>COUNTRY</B> = Chile<BR><B>AUTHORS</B> = http://www.PEAKLIST.org]]></description>
		<Point>
			<coordinates>-72.26333332999999,-45.19833333,1830</coordinates>
		</Point>
</Placemark>
<Placemark>
    <styleUrl>#icon0</styleUrl>
    <name>Pico de las Nueves</name>
		<description><![CDATA[World's Ultras<BR><BR><B>NAME</B> = Pico de las Nueves<BR><B>ELEVATION</B> = 1949<BR><B>PROMINENCE</B> = 1949<BR><B>ID</B> = AT008<BR><B>ALT_NAME</B> = <BR><B>COMMENT</B> = HP of Gran Canaria<BR><B>COUNTRY</B> = Spain<BR><B>AUTHORS</B> = http://www.PEAKLIST.org]]></description>
		<Point>
			<coordinates>-15.56583333,27.96388889,1949</coordinates>
		</Point>
</Placemark>
<Placemark>
    <styleUrl>#icon0</styleUrl>
    <name>Wheeler Peak</name>
		<description><![CDATA[World's Ultras<BR><BR><B>NAME</B> = Wheeler Peak<BR><B>ELEVATION</B> = 3982<BR><B>PROMINENCE</B> = 2307<BR><B>ID</B> = US012<BR><B>ALT_NAME</B> = <BR><B>COMMENT</B> = <BR><B>COUNTRY</B> = USA<BR><B>AUTHORS</B> = http://www.PEAKLIST.org]]></description>
		<Point>
			<coordinates>-114.31388889,38.98583333,3982</coordinates>
		</Point>
</Placemark>
<Placemark>
    <styleUrl>#icon0</styleUrl>
    <name>Hathi Parbat</name>
		<description><![CDATA[World's Ultras<BR><BR><B>NAME</B> = Hathi Parbat<BR><B>ELEVATION</B> = 6727<BR><B>PROMINENCE</B> = 1673<BR><B>ID</B> = AS314<BR><B>ALT_NAME</B> = <BR><B>COMMENT</B> = <BR><B>COUNTRY</B> = India<BR><B>AUTHORS</B> = http://www.PEAKLIST.org]]></description>
		<Point>
			<coordinates>79.70583333,30.685,6727</coordinates>
		</Point>
</Placemark>
<Placemark>
    <styleUrl>#icon0</styleUrl>
    <name>Selik Gulam Muztag</name>
		<description><![CDATA[World's Ultras<BR><BR><B>NAME</B> = Selik Gulam Muztag<BR><B>ELEVATION</B> = 6691<BR><B>PROMINENCE</B> = 1660<BR><B>ID</B> = AS380<BR><B>ALT_NAME</B> = Kashitashi<BR><B>COMMENT</B> = <BR><B>COUNTRY</B> = China<BR><B>AUTHORS</B> = http://www.PEAKLIST.org]]></description>
		<Point>
			<coordinates>82.03583333,36.21666667,6691</coordinates>
		</Point>
</Placemark>
<Placemark>
    <styleUrl>#icon0</styleUrl>
    <name>Sauyr Zhotasy</name>
		<description><![CDATA[World's Ultras<BR><BR><B>NAME</B> = Sauyr Zhotasy<BR><B>ELEVATION</B> = 3840<BR><B>PROMINENCE</B> = 3252<BR><B>ID</B> = AN003<BR><B>ALT_NAME</B> = Muz Tau<BR><B>COMMENT</B> = <BR><B>COUNTRY</B> = China, Kazakhstan<BR><B>AUTHORS</B> = http://www.PEAKLIST.org]]></description>
		<Point>
			<coordinates>85.56666667,47.04916667,3840</coordinates>
		</Point>
</Placemark>
<Placemark>
    <styleUrl>#icon0</styleUrl>
    <name>Pt. 8084</name>
		<description><![CDATA[World's Ultras<BR><BR><B>NAME</B> = Pt. 8084<BR><B>ELEVATION</B> = 2464<BR><B>PROMINENCE</B> = 1900<BR><B>ID</B> = AK029<BR><B>ALT_NAME</B> = <BR><B>COMMENT</B> = Unnamed<BR><B>COUNTRY</B> = USA<BR><B>AUTHORS</B> = http://www.PEAKLIST.org]]></description>
		<Point>
			<coordinates>-145.13194444,60.83027778,2464</coordinates>
		</Point>
</Placemark>
<Placemark>
    <styleUrl>#icon0</styleUrl>
    <name>P. 4520±</name>
		<description><![CDATA[World's Ultras<BR><BR><B>NAME</B> = P. 4520±<BR><B>ELEVATION</B> = 4520<BR><B>PROMINENCE</B> = 1787<BR><B>ID</B> = AS318<BR><B>ALT_NAME</B> = <BR><B>COMMENT</B> = Unknown Name<BR><B>COUNTRY</B> = China<BR><B>AUTHORS</B> = http://www.PEAKLIST.org]]></description>
		<Point>
			<coordinates>100.31083333,27.57666667,4520</coordinates>
		</Point>
</Placemark>
<Placemark>
    <styleUrl>#icon0</styleUrl>
    <name>North Kodar Group HP</name>
		<description><![CDATA[World's Ultras<BR><BR><B>NAME</B> = North Kodar Group HP<BR><B>ELEVATION</B> = 2966<BR><B>PROMINENCE</B> = 1810<BR><B>ID</B> = AN033<BR><B>ALT_NAME</B> = <BR><B>COMMENT</B> = Unknown Name<BR><B>COUNTRY</B> = Russia<BR><B>AUTHORS</B> = http://www.PEAKLIST.org]]></description>
		<Point>
			<coordinates>117.98833333,57.12166667,2966</coordinates>
		</Point>
</Placemark>
<Placemark>
    <styleUrl>#icon0</styleUrl>
    <name>Mt. Tatlow</name>
		<description><![CDATA[World's Ultras<BR><BR><B>NAME</B> = Mt. Tatlow<BR><B>ELEVATION</B> = 3063<BR><B>PROMINENCE</B> = 1613<BR><B>ID</B> = CN098<BR><B>ALT_NAME</B> = <BR><B>COMMENT</B> = <BR><B>COUNTRY</B> = Canada<BR><B>AUTHORS</B> = http://www.PEAKLIST.org]]></description>
		<Point>
			<coordinates>-123.86416667,51.38416667,3063</coordinates>
		</Point>
</Placemark>
<Placemark>
    <styleUrl>#icon0</styleUrl>
    <name>Galdhøpiggen</name>
		<description><![CDATA[World's Ultras<BR><BR><B>NAME</B> = Galdhøpiggen<BR><B>ELEVATION</B> = 2469<BR><B>PROMINENCE</B> = 2372<BR><B>ID</B> = EU011<BR><B>ALT_NAME</B> = <BR><B>COMMENT</B> = HP of Norway.<BR><B>COUNTRY</B> = Norway<BR><B>AUTHORS</B> = http://www.PEAKLIST.org]]></description>
		<Point>
			<coordinates>8.315,61.63666667,2469</coordinates>
		</Point>
</Placemark>
<Placemark>
    <styleUrl>#icon0</styleUrl>
    <name>Pukeashun Mtn.</name>
		<description><![CDATA[World's Ultras<BR><BR><B>NAME</B> = Pukeashun Mtn.<BR><B>ELEVATION</B> = 2301<BR><B>PROMINENCE</B> = 1696<BR><B>ID</B> = CN076<BR><B>ALT_NAME</B> = <BR><B>COMMENT</B> = <BR><B>COUNTRY</B> = Canada<BR><B>AUTHORS</B> = http://www.PEAKLIST.org]]></description>
		<Point>
			<coordinates>-119.23527778,51.20472222,2301</coordinates>
		</Point>
</Placemark>
<Placemark>
    <styleUrl>#icon0</styleUrl>
    <name>Arga-Tas HP</name>
		<description><![CDATA[World's Ultras<BR><BR><B>NAME</B> = Arga-Tas HP<BR><B>ELEVATION</B> = 2400<BR><B>PROMINENCE</B> = 1510<BR><B>ID</B> = SI007<BR><B>ALT_NAME</B> = <BR><B>COMMENT</B> = <BR><B>COUNTRY</B> = Russia<BR><B>AUTHORS</B> = http://www.PEAKLIST.org]]></description>
		<Point>
			<coordinates>149.08,65.21472222,2400</coordinates>
		</Point>
</Placemark>
<Placemark>
    <styleUrl>#icon0</styleUrl>
    <name>Sahuasiray</name>
		<description><![CDATA[World's Ultras<BR><BR><B>NAME</B> = Sahuasiray<BR><B>ELEVATION</B> = 5818<BR><B>PROMINENCE</B> = 1920<BR><B>ID</B> = SA086<BR><B>ALT_NAME</B> = Nevado Colque Cruz<BR><B>COMMENT</B> = <BR><B>COUNTRY</B> = Peru<BR><B>AUTHORS</B> = http://www.PEAKLIST.org]]></description>
		<Point>
			<coordinates>-71.98999999999999,-13.21333333,5818</coordinates>
		</Point>
</Placemark>
<Placemark>
    <styleUrl>#icon0</styleUrl>
    <name>Gunong Yong Belar</name>
		<description><![CDATA[World's Ultras<BR><BR><B>NAME</B> = Gunong Yong Belar<BR><B>ELEVATION</B> = 2180<BR><B>PROMINENCE</B> = 1991<BR><B>ID</B> = AS202<BR><B>ALT_NAME</B> = <BR><B>COMMENT</B> = <BR><B>COUNTRY</B> = Malaysia<BR><B>AUTHORS</B> = http://www.PEAKLIST.org]]></description>
		<Point>
			<coordinates>101.36166667,4.65,2180</coordinates>
		</Point>
</Placemark>
<Placemark>
    <styleUrl>#icon0</styleUrl>
    <name>Udren Zom</name>
		<description><![CDATA[World's Ultras<BR><BR><B>NAME</B> = Udren Zom<BR><B>ELEVATION</B> = 7108<BR><B>PROMINENCE</B> = 1624<BR><B>ID</B> = AS458<BR><B>ALT_NAME</B> = <BR><B>COMMENT</B> = <BR><B>COUNTRY</B> = Pakistan<BR><B>AUTHORS</B> = http://www.PEAKLIST.org]]></description>
		<Point>
			<coordinates>71.92083332999999,36.51722222,7108</coordinates>
		</Point>
</Placemark>
<Placemark>
    <styleUrl>#icon0</styleUrl>
    <name>Jeanette Peak</name>
		<description><![CDATA[World's Ultras<BR><BR><B>NAME</B> = Jeanette Peak<BR><B>ELEVATION</B> = 3089<BR><B>PROMINENCE</B> = 1657<BR><B>ID</B> = CN087<BR><B>ALT_NAME</B> = <BR><B>COMMENT</B> = Name created by bivouac.com<BR><B>COUNTRY</B> = Canada<BR><B>AUTHORS</B> = http://www.PEAKLIST.org]]></description>
		<Point>
			<coordinates>-118.61666667,52.63555556,3089</coordinates>
		</Point>
</Placemark>
<Placemark>
    <styleUrl>#icon0</styleUrl>
    <name>Oscar Peak</name>
		<description><![CDATA[World's Ultras<BR><BR><B>NAME</B> = Oscar Peak<BR><B>ELEVATION</B> = 2336<BR><B>PROMINENCE</B> = 2099<BR><B>ID</B> = CN033<BR><B>ALT_NAME</B> = <BR><B>COMMENT</B> = <BR><B>COUNTRY</B> = Canada<BR><B>AUTHORS</B> = http://www.PEAKLIST.org]]></description>
		<Point>
			<coordinates>-129.06,54.92833333,2336</coordinates>
		</Point>
</Placemark>
<Placemark>
    <styleUrl>#icon0</styleUrl>
    <name>P. 2995</name>
		<description><![CDATA[World's Ultras<BR><BR><B>NAME</B> = P. 2995<BR><B>ELEVATION</B> = 2995<BR><B>PROMINENCE</B> = 1544<BR><B>ID</B> = AS703<BR><B>ALT_NAME</B> = <BR><B>COMMENT</B> = Unknown Name<BR><B>COUNTRY</B> = China<BR><B>AUTHORS</B> = http://www.PEAKLIST.org]]></description>
		<Point>
			<coordinates>99.21583333000001,23.43,2995</coordinates>
		</Point>
</Placemark>
<Placemark>
    <styleUrl>#icon0</styleUrl>
    <name>Pegunungan Kobowre</name>
		<description><![CDATA[World's Ultras<BR><BR><B>NAME</B> = Pegunungan Kobowre<BR><B>ELEVATION</B> = 3750<BR><B>PROMINENCE</B> = 2217<BR><B>ID</B> = AS143<BR><B>ALT_NAME</B> = <BR><B>COMMENT</B> = <BR><B>COUNTRY</B> = Indonesia<BR><B>AUTHORS</B> = http://www.PEAKLIST.org]]></description>
		<Point>
			<coordinates>135.87083333,-3.87083333,3750</coordinates>
		</Point>
</Placemark>
<Placemark>
    <styleUrl>#icon0</styleUrl>
    <name>Gunung Ophir</name>
		<description><![CDATA[World's Ultras<BR><BR><B>NAME</B> = Gunung Ophir<BR><B>ELEVATION</B> = 2912<BR><B>PROMINENCE</B> = 2324<BR><B>ID</B> = AS122<BR><B>ALT_NAME</B> = <BR><B>COMMENT</B> = <BR><B>COUNTRY</B> = Indonesia<BR><B>AUTHORS</B> = http://www.PEAKLIST.org]]></description>
		<Point>
			<coordinates>99.98416667000001,0.07916666999999999,2912</coordinates>
		</Point>
</Placemark>
<Placemark>
    <styleUrl>#icon0</styleUrl>
    <name>Shir Kuh</name>
		<description><![CDATA[World's Ultras<BR><BR><B>NAME</B> = Shir Kuh<BR><B>ELEVATION</B> = 4050<BR><B>PROMINENCE</B> = 2271<BR><B>ID</B> = AS131<BR><B>ALT_NAME</B> = <BR><B>COMMENT</B> = <BR><B>COUNTRY</B> = Iran<BR><B>AUTHORS</B> = http://www.PEAKLIST.org]]></description>
		<Point>
			<coordinates>54.06833333000001,31.60583333,4050</coordinates>
		</Point>
</Placemark>
<Placemark>
    <styleUrl>#icon0</styleUrl>
    <name>Mt. Joffre</name>
		<description><![CDATA[World's Ultras<BR><BR><B>NAME</B> = Mt. Joffre<BR><B>ELEVATION</B> = 3433<BR><B>PROMINENCE</B> = 1505<BR><B>ID</B> = CN137<BR><B>ALT_NAME</B> = <BR><B>COMMENT</B> = <BR><B>COUNTRY</B> = Canada<BR><B>AUTHORS</B> = http://www.PEAKLIST.org]]></description>
		<Point>
			<coordinates>-115.20666667,50.52833333000001,3433</coordinates>
		</Point>
</Placemark>
<Placemark>
    <styleUrl>#icon0</styleUrl>
    <name>Wuhevi</name>
		<description><![CDATA[World's Ultras<BR><BR><B>NAME</B> = Wuhevi<BR><B>ELEVATION</B> = 3095<BR><B>PROMINENCE</B> = 1570<BR><B>ID</B> = AF077<BR><B>ALT_NAME</B> = <BR><B>COMMENT</B> = <BR><B>COUNTRY</B> = Congo<BR><B>AUTHORS</B> = http://www.PEAKLIST.org]]></description>
		<Point>
			<coordinates>29.42416667,-0.1425,3095</coordinates>
		</Point>
</Placemark>
<Placemark>
    <styleUrl>#icon0</styleUrl>
    <name>Gora Alagordy</name>
		<description><![CDATA[World's Ultras<BR><BR><B>NAME</B> = Gora Alagordy<BR><B>ELEVATION</B> = 4622<BR><B>PROMINENCE</B> = 2480<BR><B>ID</B> = AN008<BR><B>ALT_NAME</B> = Köketau<BR><B>COMMENT</B> = <BR><B>COUNTRY</B> = China, Kazakhstan<BR><B>AUTHORS</B> = http://www.PEAKLIST.org]]></description>
		<Point>
			<coordinates>80.25749999999999,45.04166666999999,4622</coordinates>
		</Point>
</Placemark>
<Placemark>
    <styleUrl>#icon0</styleUrl>
    <name>Kimhandu</name>
		<description><![CDATA[World's Ultras<BR><BR><B>NAME</B> = Kimhandu<BR><B>ELEVATION</B> = 2653<BR><B>PROMINENCE</B> = 2121<BR><B>ID</B> = AF026<BR><B>ALT_NAME</B> = <BR><B>COMMENT</B> = <BR><B>COUNTRY</B> = Tanzania<BR><B>AUTHORS</B> = http://www.PEAKLIST.org]]></description>
		<Point>
			<coordinates>37.61833333,-7.0925,2653</coordinates>
		</Point>
</Placemark>